name,highest_degree_offered,lon,lat,state,enrollment
Alabama A & M University,Doctor,-86.568502,34.783368,Alabama,5020
University of Alabama at Birmingham,Doctor,-86.80917,33.50223,Alabama,18568
Amridge University,Doctor,-86.17401,32.362609,Alabama,631
University of Alabama in Huntsville,Doctor,-86.63842,34.722818,Alabama,7376
Alabama State University,Doctor,-86.295677,32.364317,Alabama,6075
The University of Alabama,Doctor,-87.545766,33.2144,Alabama,34752
University of West Alabama,Master,-88.186077,32.59244,Alabama,4427
Athens State University,Bachelor,-86.96514,34.805625,Alabama,3170
Auburn University at Montgomery,Doctor,-86.177351,32.369939,Alabama,5084
Auburn University,Doctor,-85.492409,32.600201,Alabama,24864
Birmingham Southern College,Bachelor,-86.853636,33.515453,Alabama,1188
Concordia College Alabama,Bachelor,-87.023531,32.42443,Alabama,600
Faulkner University,Doctor,-86.21641,32.384181,Alabama,3193
Huntingdon College,Bachelor,-86.285313,32.350939,Alabama,1110
Jacksonville State University,Doctor,-85.766644,33.822128,Alabama,8693
Judson College,Bachelor,-87.316127,32.630526,Alabama,347
Miles College,Bachelor,-86.908605,33.481306,Alabama,1666
University of Mobile,Master,-88.128934,30.793247,Alabama,1610
University of Montevallo,Master,-86.865099,33.10625,Alabama,3062
University of North Alabama,Master,-87.680999,34.80658,Alabama,6931
Oakwood University,Master,-86.661628,34.756628,Alabama,1903
Samford University,Doctor,-86.790932,33.464578,Alabama,4833
University of South Alabama,Doctor,-88.18189,30.695081,Alabama,15065
Spring Hill College,Master,-88.138199,30.694751,Alabama,1422
Stillman College,Bachelor,-87.585242,33.199228,Alabama,863
Talladega College,Bachelor,-86.113675,33.434258,Alabama,932
Troy University,Doctor,-85.950191,31.800128,Alabama,20573
Tuskegee University,Doctor,-85.710315,32.431021,Alabama,3118
University of Alaska Anchorage,Doctor,-149.826135,61.189554,Alaska,17363
University of Alaska Fairbanks,Doctor,-147.824751,64.857053,Alaska,9166
University of Alaska Southeast,Master,-134.636346,58.38427,Alaska,2996
Alaska Pacific University,Doctor,-149.804242,61.191235,Alaska,669
American Indian College of the Assemblies of God Inc,Bachelor,-112.092247,33.577738,Arizona,79
Arizona State University-Tempe,Doctor,-111.940011,33.421922,Arizona,48702
University of Arizona,Doctor,-110.950769,32.232071,Arizona,40621
Embry-Riddle Aeronautical University-Prescott,Master,-112.452285,34.615678,Arizona,1921
Northern Arizona University,Doctor,-111.657653,35.180095,Arizona,26594
Ottawa University-Phoenix,Master,-112.113447,33.577907,Arizona,653
Prescott College,Doctor,-112.476509,34.5445,Arizona,943
Arizona Christian University,Bachelor,-112.026211,33.595117,Arizona,635
University of Arkansas at Little Rock,Doctor,-92.341835,34.726644,Arkansas,12377
Arkansas Baptist College,Bachelor,-92.290555,34.734751,Arkansas,1027
Lyon College,Bachelor,-91.628115,35.778934,Arkansas,592
University of Arkansas,Doctor,-94.178214,36.06153,Arkansas,25341
University of Arkansas at Pine Bluff,Doctor,-92.021263,34.242192,Arkansas,2615
Arkansas State University-Main Campus,Doctor,-90.680478,35.842779,Arkansas,13552
Arkansas Tech University,Master,-93.13233,35.295227,Arkansas,11369
University of Arkansas at Monticello,Master,-91.812971,33.589788,Arkansas,3893
University of Central Arkansas,Doctor,-92.45931,35.078196,Arkansas,11534
Central Baptist College,Bachelor,-92.444102,35.084574,Arkansas,827
Harding University,Doctor,-91.729008,35.249605,Arkansas,6238
Henderson State University,Master,-93.060313,34.127792,Arkansas,3583
Hendrix College,Master,-92.442021,35.09972,Arkansas,1444
John Brown University,Master,-94.559088,36.191077,Arkansas,2596
Ouachita Baptist University,Bachelor,-93.052442,34.125045,Arkansas,1543
University of the Ozarks,Bachelor,-93.467924,35.477785,Arkansas,585
Philander Smith College,Bachelor,-92.28242,34.73666,Arkansas,556
Williams Baptist College,Bachelor,-90.939876,36.126825,Arkansas,574
Southern Arkansas University Main Campus,Master,-93.235087,33.291195,Arkansas,3404
University of Arkansas-Fort Smith,Bachelor,-94.374073,35.385345,Arkansas,7170
Azusa Pacific University,Doctor,-117.88795,34.130865,California,10755
Biola University,Doctor,-118.017342,33.904823,California,6301
California Institute of Integral Studies,Doctor,-122.416537,37.774768,California,1271
California Baptist University,Master,-117.42587,33.928569,California,7144
California Institute of Technology,Doctor,-118.12574,34.139275,California,2181
California Lutheran University,Doctor,-118.879467,34.225551,California,4282
California Polytechnic State University-San Luis Obispo,Master,-120.65856,35.29889,California,19703
Alliant International University,Doctor,-117.094398,32.897056,California,4201
California State University-Bakersfield,Master,-119.104711,35.350005,California,8371
California State University-Stanislaus,Doctor,-120.852511,37.52577,California,8917
California State University-San Bernardino,Doctor,-117.322508,34.182987,California,18398
California State Polytechnic University-Pomona,Doctor,-117.819019,34.054273,California,22501
California State University-Chico,Master,-121.846333,39.728003,California,16356
California State University-Dominguez Hills,Master,-118.259316,33.86524,California,14670
California State University-Fresno,Doctor,-119.748258,36.814477,California,23060
California State University-Fullerton,Doctor,-117.885349,33.883627,California,38325
California State University-East Bay,Doctor,-122.058073,37.65707,California,14526
California State University-Long Beach,Doctor,-118.1123,33.782752,California,35586
California State University-Los Angeles,Doctor,-118.168965,34.066927,California,23258
California State University-Northridge,Doctor,-118.526817,34.23671,California,38310
California State University-Sacramento,Doctor,-121.42194,38.55745,California,28811
University of California-Berkeley,Doctor,-122.260401,37.871519,California,36198
University of California-Davis,Doctor,-121.751958,38.539895,California,33307
University of California-Irvine,Doctor,-117.841248,33.648434,California,28895
University of California-Los Angeles,Doctor,-118.443901,34.068892,California,40795
University of California-Riverside,Doctor,-117.331098,33.97588,California,21207
University of California-San Diego,Doctor,-117.237793,32.876598,California,29517
University of California-Santa Barbara,Doctor,-119.848031,34.415402,California,22225
University of California-Santa Cruz,Doctor,-122.067993,36.997258,California,17203
California Maritime Academy,Bachelor,-122.231551,38.069061,California,1045
Chapman University,Doctor,-117.851481,33.793678,California,7892
Concordia University-Irvine,Master,-117.81063,33.6535,California,4046
San Diego Christian College,Bachelor,-116.903073,32.799999,California,914
Claremont Graduate University,Doctor,-117.712394,34.103778,California,2204
Claremont McKenna College,Master,-117.706593,34.102323,California,1328
Coleman University,Master,-117.136493,32.821962,California,833
Dominican University of California,Master,-122.514654,37.980014,California,2147
Fielding Graduate University,Doctor,-119.717151,34.4294,California,1190
Fresno Pacific University,Master,-119.731953,36.725279,California,3393
Golden Gate University-San Francisco,Doctor,-122.398785,37.789208,California,3227
Harvey Mudd College,Bachelor,-117.710594,34.106137,California,807
Holy Names University,Master,-122.18717,37.802654,California,1343
Humboldt State University,Master,-124.0814,40.8741,California,8293
Humphreys College-Stockton and Modesto Campuses,Doctor,-121.316401,38.011051,California,990
John F Kennedy University,Doctor,-122.183972,37.881794,California,1356
American Jewish University,Master,-118.471764,34.128099,California,229
University of La Verne,Doctor,-117.772634,34.10086,California,8796
Lincoln University,Doctor,-122.269745,37.804788,California,492
La Sierra University,Doctor,-117.497071,33.908834,California,2440
The Master's College and Seminary,Doctor,-118.517422,34.38214,California,1499
Loyola Marymount University,Doctor,-118.415655,33.970633,California,9661
Menlo College,Bachelor,-122.181444,37.452906,California,745
Mills College,Doctor,-122.18789,37.782639,California,1595
Monterey Institute of International Studies,Master,-121.896813,36.599827,California,731
Mount St Mary's College,Doctor,-118.480471,34.082112,California,3274
National University,Doctor,-117.244243,32.909469,California,18207
Notre Dame de Namur University,Master,-122.284618,37.517501,California,2030
Occidental College,Master,-118.210783,34.126224,California,2128
Hope International University,Master,-117.88573,33.87616,California,1356
Pacific Union College,Master,-122.449639,38.57409,California,1647
University of the Pacific,Doctor,-121.307296,37.980624,California,6421
Pepperdine University,Doctor,-118.707677,34.041912,California,7315
Pitzer College,Bachelor,-117.705939,34.103408,California,1081
Point Loma Nazarene University,Master,-117.251204,32.713295,California,3359
Pomona College,Bachelor,-117.711944,34.098298,California,1610
University of Redlands,Doctor,-117.163847,34.063571,California,5147
San Diego State University,Doctor,-117.071228,32.77525,California,31899
University of San Diego,Doctor,-117.188721,32.77142,California,8321
San Francisco State University,Doctor,-122.477905,37.721345,California,29905
University of San Francisco,Doctor,-122.450977,37.775564,California,10112
San Jose State University,Master,-121.881214,37.335201,California,31278
Santa Clara University,Doctor,-121.938189,37.352706,California,8770
Scripps College,Bachelor,-117.711336,34.103655,California,1009
Simpson University,Master,-122.333048,40.61331,California,1255
Saint Mary's College of California,Doctor,-122.106795,37.83997,California,4257
Sonoma State University,Master,-122.673261,38.341023,California,9120
Vanguard University of Southern California,Master,-117.900911,33.662686,California,2415
University of Southern California,Doctor,-118.283858,34.021058,California,41368
Thomas Aquinas College,Bachelor,-119.087141,34.429009,California,366
Westmont College,Bachelor,-119.661932,34.449265,California,1321
Whittier College,Doctor,-118.028402,33.977625,California,2339
Woodbury University,Master,-118.340692,34.209226,California,1607
Adams State University,Master,-105.880943,37.477238,Colorado,3211
University of Colorado Denver,Doctor,-104.999181,39.74603,Colorado,22206
University of Colorado Colorado Springs,Doctor,-104.800296,38.892735,Colorado,11321
University of Colorado Boulder,Doctor,-105.267061,40.004415,Colorado,32017
Colorado Christian University,Master,-105.094836,39.711701,Colorado,5368
Colorado College,Master,-104.82422,38.84657,Colorado,2061
Colorado School of Mines,Doctor,-105.227148,39.75079,Colorado,5790
Colorado State University-Fort Collins,Doctor,-105.08083,40.574759,Colorado,31186
College America-Denver,Bachelor,-104.94118,39.691571,Colorado,497
University of Denver,Doctor,-104.964625,39.695954,Colorado,11778
Fort Lewis College,Master,-107.867003,37.275428,Colorado,4021
Colorado Mesa University,Doctor,-108.540281,39.076354,Colorado,9676
Metropolitan State University of Denver,Master,-105.002391,39.742248,Colorado,22752
Naropa University,Master,-105.267073,40.014816,Colorado,992
University of Northern Colorado,Doctor,-104.701721,40.403178,Colorado,12710
Regis University,Doctor,-105.031385,39.78976,Colorado,9722
Colorado State University-Pueblo,Master,-104.579846,38.309219,Colorado,7089
Western State Colorado University,Master,-106.91971,38.547421,Colorado,2404
Albertus Magnus College,Master,-72.923848,41.332519,Connecticut,1582
University of Bridgeport,Doctor,-73.189352,41.165587,Connecticut,4842
Central Connecticut State University,Doctor,-72.770094,41.690258,Connecticut,11865
Charter Oak State College,Bachelor,-72.767972,41.688246,Connecticut,1580
Connecticut College,Master,-72.107321,41.379833,Connecticut,1922
University of Connecticut,Doctor,-72.249519,41.808205,Connecticut,25911
Eastern Connecticut State University,Master,-72.218753,41.721673,Connecticut,5368
Fairfield University,Doctor,-73.25778,41.160732,Connecticut,4919
Rensselaer Hartford Graduate Center Inc,Master,-72.673916,41.773462,Connecticut,281
University of Hartford,Doctor,-72.714965,41.796485,Connecticut,6820
Mitchell College,Bachelor,-72.095337,41.328075,Connecticut,866
University of New Haven,Doctor,-72.961472,41.291314,Connecticut,6555
Quinnipiac University,Doctor,-72.895542,41.419527,Connecticut,8803
Sacred Heart University,Doctor,-73.24461,41.221548,Connecticut,6983
University of Saint Joseph,Doctor,-72.730489,41.783028,Connecticut,2640
Southern Connecticut State University,Doctor,-72.948806,41.331852,Connecticut,10804
Trinity College,Master,-72.688684,41.746746,Connecticut,2390
Wesleyan University,Doctor,-72.656755,41.55678,Connecticut,3205
Western Connecticut State University,Doctor,-73.444264,41.400365,Connecticut,6025
Yale University,Doctor,-72.926688,41.311158,Connecticut,12109
Delaware State University,Doctor,-75.54053,39.187173,Delaware,4336
University of Delaware,Doctor,-75.7536,39.679791,Delaware,22166
Wesley College,Master,-75.527377,39.16325,Delaware,1655
Wilmington University,Doctor,-75.586998,39.682299,Delaware,13621
American University,Doctor,-77.090106,38.937802,District of Columbia,12818
Catholic University of America,Doctor,-76.998961,38.935796,District of Columbia,6725
University of the District of Columbia,Master,-77.066247,38.943819,District of Columbia,5011
Gallaudet University,Doctor,-76.993675,38.907371,District of Columbia,1561
George Washington University,Doctor,-77.047871,38.89865,District of Columbia,25264
Georgetown University,Doctor,-77.073463,38.908809,District of Columbia,17849
Howard University,Doctor,-77.019478,38.920739,District of Columbia,10297
Trinity Washington University,Master,-77.004261,38.927398,District of Columbia,2506
Barry University,Doctor,-80.196136,25.878865,Florida,9030
Bethune-Cookman University,Master,-81.031429,29.210193,Florida,3787
Lynn University,Doctor,-80.123851,26.382777,Florida,2297
Carlos Albizu University-Miami,Doctor,-80.355002,25.795162,Florida,991
University of Central Florida,Doctor,-81.198805,28.60106,Florida,59589
Clearwater Christian College,Master,-82.697305,27.963556,Florida,505
Eckerd College,Bachelor,-82.685992,27.718996,Florida,2173
Edward Waters College,Bachelor,-81.684817,30.34513,Florida,862
Embry-Riddle Aeronautical University-Daytona Beach,Doctor,-81.0495,29.189244,Florida,5279
Florida Agricultural and Mechanical University,Doctor,-84.285664,30.428599,Florida,10743
Florida Atlantic University,Doctor,-80.102293,26.372536,Florida,30759
Flagler College-St Augustine,Bachelor,-81.315256,29.89335,Florida,2839
Florida College,Bachelor,-82.383446,28.034911,Florida,558
Florida Institute of Technology,Doctor,-80.624628,28.064503,Florida,5644
Florida International University,Doctor,-80.377591,25.757111,Florida,47663
Florida Memorial University,Master,-80.270672,25.917854,Florida,1560
Florida Southern College,Master,-81.945791,28.031507,Florida,2619
Florida State University,Doctor,-84.294801,30.4421,Florida,40909
University of Florida,Doctor,-82.361195,29.638248,Florida,49878
Jacksonville University,Doctor,-81.60706,30.350349,Florida,4157
Jones College-Jacksonville,Bachelor,-81.610068,30.328002,Florida,449
Keiser University-Ft Lauderdale,Doctor,-80.163959,26.185869,Florida,17129
Trinity International University-Florida,Master,-80.257156,26.099656,Florida,347
University of Miami,Doctor,-80.27645,25.720406,Florida,16935
Remington College-Tampa Campus,Bachelor,-82.385976,27.983466,Florida,189
University of North Florida,Doctor,-81.507853,30.270917,Florida,16083
Nova Southeastern University,Doctor,-80.24248,26.079337,Florida,25670
Palm Beach Atlantic University,Doctor,-80.049758,26.704629,Florida,3764
Rollins College,Doctor,-81.348716,28.591992,Florida,3153
Saint Leo University,Doctor,-82.257287,28.336776,Florida,16275
St Petersburg College,Bachelor,-82.717331,27.90242,Florida,31820
University of South Florida-Main Campus,Doctor,-82.415876,28.056647,Florida,41428
St Thomas University,Doctor,-80.256265,25.920915,Florida,2315
Stetson University,Doctor,-81.301604,29.036295,Florida,4044
Southeastern University,Master,-81.918997,28.031864,Florida,3434
The University of Tampa,Master,-82.465582,27.947225,Florida,7260
Warner University,Master,-81.599972,27.825751,Florida,1162
Webber International University,Master,-81.532325,27.838798,Florida,715
The University of West Florida,Doctor,-87.218125,30.542855,Florida,12588
Agnes Scott College,Bachelor,-84.29563,33.769996,Georgia,915
Albany State University,Master,-84.14306,31.571395,Georgia,4260
Armstrong Atlantic State University,Doctor,-81.160409,31.978109,Georgia,7101
Point University,Bachelor,-85.184285,32.879467,Georgia,1439
Clark Atlanta University,Doctor,-84.412818,33.748772,Georgia,3458
Berry College,Master,-85.189077,34.289254,Georgia,2223
Brenau University,Doctor,-83.821513,34.303117,Georgia,2854
Brewton-Parker College,Bachelor,-82.586136,32.185718,Georgia,693
Clayton  State University,Master,-84.328174,33.594079,Georgia,7261
Columbus State University,Doctor,-84.940796,32.501556,Georgia,8156
Covenant College,Master,-85.37496,34.963327,Georgia,1173
Dalton State College,Bachelor,-85.00289,34.77496,Georgia,5015
Emmanuel College,Bachelor,-83.146825,34.282617,Georgia,806
Emory University,Doctor,-84.325782,33.798836,Georgia,14513
Fort Valley State University,Master,-83.895548,32.538163,Georgia,3180
Georgia Institute of Technology-Main Campus,Doctor,-84.396019,33.773732,Georgia,21471
Georgia Southwestern State University,Master,-84.217755,32.058198,Georgia,2806
Georgia College and State University,Doctor,-83.231962,33.082787,Georgia,6551
Georgia Southern University,Doctor,-81.782201,32.427756,Georgia,20517
Georgia State University,Doctor,-84.38667,33.7527,Georgia,32165
University of Georgia,Doctor,-83.374049,33.956428,Georgia,34536
Kennesaw State University,Doctor,-84.58083,34.03629,Georgia,24629
LaGrange College,Master,-85.041394,33.039713,Georgia,940
Life University,Doctor,-84.514156,33.932104,Georgia,2730
Mercer University,Doctor,-83.651042,32.829731,Georgia,8351
Morehouse College,Bachelor,-84.415156,33.74793,Georgia,2170
University of North Georgia,Doctor,-83.985934,34.530254,Georgia,
Oglethorpe University,Master,-84.334756,33.875939,Georgia,1100
Paine College,Bachelor,-81.991199,33.469259,Georgia,924
Piedmont College,Doctor,-83.543216,34.56663,Georgia,2368
Reinhardt University,Master,-84.554657,34.318874,Georgia,1309
Savannah State University,Master,-81.063377,32.024781,Georgia,4772
Shorter University,Master,-85.196213,34.258192,Georgia,1629
Spelman College,Bachelor,-84.410118,33.74519,Georgia,2129
Southern Polytechnic State University,Master,-84.519276,33.938992,Georgia,6549
Thomas University,Master,-83.981478,30.813954,Georgia,1090
Toccoa Falls College,Bachelor,-83.353462,34.59554,Georgia,870
Truett-McConnell College,Bachelor,-83.745972,34.594437,Georgia,1606
Valdosta State University,Doctor,-83.289925,30.849236,Georgia,11885
Wesleyan College,Master,-83.717186,32.874648,Georgia,700
University of West Georgia,Doctor,-85.099007,33.574421,Georgia,11929
Chaminade University of Honolulu,Master,-157.807642,21.290274,Hawaii,2752
University of Hawaii at Hilo,Doctor,-155.081329,19.701854,Hawaii,4043
University of Hawaii at Manoa,Doctor,-157.816607,21.292648,Hawaii,20006
Hawaii Pacific University,Master,-157.859411,21.31028,Hawaii,6736
University of Hawaii-West Oahu,Bachelor,-158.062444,21.353359,Hawaii,2361
Boise State University,Doctor,-116.205789,43.604403,Idaho,21981
Idaho State University,Doctor,-112.429084,42.864108,Idaho,13326
University of Idaho,Doctor,-117.024296,46.726894,Idaho,12024
The College of Idaho,Master,-116.676838,43.652653,Idaho,1122
Lewis-Clark State College,Bachelor,-117.026371,46.410034,Idaho,4304
Northwest Nazarene University,Doctor,-116.564792,43.563181,Idaho,2246
Brigham Young University-Idaho,Bachelor,-111.784728,43.815384,Idaho,27692
Augustana College,Bachelor,-90.552402,41.500326,Illinois,2524
Aurora University,Doctor,-88.349469,41.754465,Illinois,4946
Blackburn College,Bachelor,-89.872248,39.288298,Illinois,543
Bradley University,Doctor,-89.61462,40.697605,Illinois,5430
Chicago State University,Doctor,-87.610344,41.718813,Illinois,5701
University of Chicago,Doctor,-87.601196,41.78917,Illinois,15048
Columbia College-Chicago,Master,-87.624554,41.873589,Illinois,10142
Concordia University-Chicago,Doctor,-87.810009,41.898574,Illinois,5286
DePaul University,Doctor,-87.654116,41.923332,Illinois,24414
East-West University,Bachelor,-87.624793,41.871309,Illinois,684
Eastern Illinois University,Master,-88.175505,39.483017,Illinois,9775
Elmhurst College,Master,-87.946096,41.899215,Illinois,3210
Eureka College,Bachelor,-89.268952,40.713042,Illinois,692
Governors State University,Doctor,-87.717012,41.448603,Illinois,5568
Greenville College,Master,-89.409178,38.894751,Illinois,1368
University of Illinois at Chicago,Doctor,-87.651145,41.872651,Illinois,28038
Benedictine University,Doctor,-88.095948,41.776395,Illinois,6318
University of Illinois at Urbana-Champaign,Doctor,-88.230309,40.108864,Illinois,44942
Illinois Wesleyan University,Bachelor,-88.990622,40.491522,Illinois,2009
Illinois College,Master,-90.246256,39.730827,Illinois,1028
Illinois Institute of Technology,Doctor,-87.628346,41.833801,Illinois,7850
Illinois State University,Doctor,-88.99234,40.509724,Illinois,20272
Judson University,Doctor,-88.289708,42.05896,Illinois,1170
Knox College,Bachelor,-90.370316,40.941829,Illinois,1424
Lake Forest College,Master,-87.830777,42.250456,Illinois,1618
Lewis University,Doctor,-88.079032,41.605432,Illinois,6525
Lincoln College,Bachelor,-89.360552,40.157141,Illinois,1240
Loyola University Chicago,Doctor,-87.657399,41.999161,Illinois,15957
MacMurray College,Bachelor,-90.22175,39.730226,Illinois,571
McKendree University,Doctor,-89.814486,38.609431,Illinois,3027
Millikin University,Doctor,-88.974571,39.842604,Illinois,2261
Monmouth College,Bachelor,-90.637909,40.91459,Illinois,1255
National Louis University,Doctor,-87.624805,41.879826,Illinois,4814
North Central College,Master,-88.143649,41.775304,Illinois,3048
North Park University,Doctor,-87.709142,41.9751,Illinois,3136
Northern Illinois University,Doctor,-88.766065,41.933791,Illinois,21138
Northwestern University,Doctor,-87.673653,42.058377,Illinois,21592
Northeastern Illinois University,Master,-87.72013,41.980567,Illinois,10821
Olivet Nazarene University,Doctor,-87.873654,41.155489,Illinois,4579
Quincy University,Master,-91.387928,39.939235,Illinois,1455
Robert Morris University Illinois,Master,-87.627068,41.876278,Illinois,3233
Rockford University,Master,-89.019536,42.270639,Illinois,1230
Roosevelt University,Doctor,-87.624952,41.876055,Illinois,6130
Dominican University,Doctor,-87.821872,41.902834,Illinois,3470
University of St Francis,Doctor,-88.096368,41.533341,Illinois,3764
Saint Xavier University,Master,-87.713507,41.707763,Illinois,4252
University of Illinois at Springfield,Doctor,-89.614917,39.729862,Illinois,5137
Shimer College,Bachelor,-87.62713,41.83217,Illinois,97
Southern Illinois University-Carbondale,Doctor,-89.217618,37.71921,Illinois,17964
Southern Illinois University-Edwardsville,Doctor,-89.997779,38.793949,Illinois,13850
Trinity Christian College,Master,-87.784157,41.669189,Illinois,1380
Trinity International University-Illinois,Doctor,-87.882722,42.197909,Illinois,2125
Western Illinois University,Doctor,-90.685235,40.465621,Illinois,11707
Wheaton College,Doctor,-88.09681,41.870943,Illinois,2993
Anderson University,Doctor,-85.662292,40.112167,Indiana,2442
Ball State University,Doctor,-85.408863,40.198942,Indiana,20503
Bethel College-Indiana,Master,-86.191642,41.677671,Indiana,1804
Butler University,Doctor,-86.171791,39.840662,Indiana,4827
Calumet College of Saint Joseph,Master,-87.492987,41.670925,Indiana,1140
DePauw University,Bachelor,-86.863556,39.63953,Indiana,2304
Earlham College,Master,-84.911464,39.822278,Indiana,1159
University of Evansville,Doctor,-87.531963,37.969955,Indiana,2630
Franklin College,Bachelor,-86.047182,39.478298,Indiana,1014
Goshen College,Master,-85.826766,41.564254,Indiana,888
Grace College and Theological Seminary,Doctor,-85.813931,41.226473,Indiana,1904
Hanover College,Bachelor,-85.461086,38.712488,Indiana,1163
Holy Cross College,Bachelor,-86.253668,41.699982,Indiana,524
Huntington University,Master,-85.499624,40.89907,Indiana,1124
Indiana University-Purdue University-Fort Wayne,Master,-85.111747,41.115418,Indiana,13459
Indiana University-Purdue University-Indianapolis,Doctor,-86.172217,39.772948,Indiana,30488
University of Indianapolis,Doctor,-86.134747,39.709671,Indiana,5452
University of Southern Indiana,Doctor,-87.67666,37.966188,Indiana,9902
Indiana State University,Doctor,-87.407085,39.46873,Indiana,12448
Indiana University-Kokomo,Master,-86.132096,40.459913,Indiana,4178
Indiana University-South Bend,Master,-86.222958,41.665746,Indiana,8073
Indiana University-Bloomington,Doctor,-86.526904,39.166383,Indiana,46817
Indiana University-Northwest,Master,-87.338457,41.556723,Indiana,6387
Indiana University-Southeast,Master,-85.819376,38.342992,Indiana,6733
Indiana University-East,Master,-84.886187,39.867099,Indiana,4456
Manchester University,Doctor,-85.758762,41.011609,Indiana,1349
Marian University,Doctor,-86.204599,39.81534,Indiana,2714
Indiana Wesleyan University,Doctor,-85.661991,40.518495,Indiana,14959
Martin University,Master,-86.104771,39.79844,Indiana,506
University of Notre Dame,Doctor,-86.238959,41.703058,Indiana,12124
Oakland City University,Doctor,-87.351611,38.339606,Indiana,2418
Purdue University-Calumet Campus,Master,-87.47376,41.584742,Indiana,9422
Purdue University-North Central Campus,Master,-86.89523,41.583788,Indiana,6102
University of Saint Francis-Fort Wayne,Master,-85.173694,41.087772,Indiana,2381
Saint Josephs College,Master,-87.155541,40.923438,Indiana,1163
Saint Mary-of-the-Woods College,Master,-87.460126,39.510543,Indiana,887
Saint Mary's College,Bachelor,-86.256947,41.707274,Indiana,1479
Taylor University,Master,-85.496906,40.458382,Indiana,2245
Trine University,Master,-85.005696,41.633389,Indiana,1875
Valparaiso University,Doctor,-87.045853,41.463176,Indiana,4508
Wabash College,Bachelor,-86.905809,40.037799,Indiana,902
Briar Cliff University,Doctor,-96.42696,42.526919,Iowa,1174
Buena Vista University,Master,-95.208053,42.642529,Iowa,2399
Central College,Bachelor,-92.918664,41.400236,Iowa,1386
Clarke University,Doctor,-90.691512,42.508619,Iowa,1225
Coe College,Master,-91.657535,41.986383,Iowa,1419
Cornell College,Bachelor,-91.425435,41.925982,Iowa,1125
Dordt College,Master,-96.166319,43.08396,Iowa,1430
Drake University,Doctor,-93.654062,41.60381,Iowa,5139
University of Dubuque,Doctor,-90.693568,42.498027,Iowa,2023
Graceland University-Lamoni,Doctor,-93.924893,40.615966,Iowa,2286
Grand View University,Master,-93.605016,41.620909,Iowa,2129
Grinnell College,Bachelor,-92.721246,41.747048,Iowa,1721
Iowa State University,Doctor,-93.648353,42.026368,Iowa,32955
Iowa Wesleyan College,Bachelor,-91.552588,40.973689,Iowa,599
University of Iowa,Doctor,-91.535698,41.660695,Iowa,29748
Loras College,Master,-90.680232,42.504131,Iowa,1621
Luther College,Bachelor,-91.803971,43.313584,Iowa,2466
Maharishi University of Management,Doctor,-91.967306,41.017781,Iowa,1136
Morningside College,Master,-96.360738,42.47324,Iowa,2542
Mount Mercy University,Master,-91.650991,42.001931,Iowa,1761
University of Northern Iowa,Doctor,-92.459703,42.514923,Iowa,12159
Northwestern College,Bachelor,-96.058382,42.998955,Iowa,1233
Saint Ambrose University,Doctor,-90.58098,41.540081,Iowa,3607
Simpson College,Master,-93.563471,41.365503,Iowa,1773
Upper Iowa University,Master,-91.799663,42.840293,Iowa,5304
Wartburg College,Bachelor,-92.480933,42.727629,Iowa,1714
William Penn University,Master,-92.648348,41.308868,Iowa,1875
Baker University,Doctor,-95.188231,38.777278,Kansas,3076
Benedictine College,Master,-95.111424,39.572953,Kansas,2177
Bethany College,Bachelor,-97.673173,38.5786,Kansas,665
Bethel College-North Newton,Bachelor,-97.342572,38.07525,Kansas,482
Central Christian College of Kansas,Bachelor,-97.667373,38.357964,Kansas,1037
Donnelly College,Bachelor,-94.65103,39.112227,Kansas,474
Emporia State University,Doctor,-96.179454,38.412583,Kansas,6033
Fort Hays State University,Master,-99.340493,38.872436,Kansas,13441
Friends University,Master,-97.366666,37.678495,Kansas,2178
University of Kansas,Doctor,-95.24587,38.957351,Kansas,26968
Newman University,Master,-97.378803,37.672306,Kansas,3736
Kansas State University,Doctor,-96.581077,39.188616,Kansas,24581
Kansas Wesleyan University,Master,-97.609476,38.813923,Kansas,729
McPherson College,Master,-97.6443,38.371464,Kansas,656
MidAmerica Nazarene University,Master,-94.782586,38.872608,Kansas,1907
Ottawa University-Ottawa,Master,-95.263776,38.602899,Kansas,558
Ottawa University-Kansas City,Master,-94.68937,38.930925,Kansas,356
Pittsburg State University,Master,-94.704782,37.3913,Kansas,7400
University of Saint Mary,Doctor,-94.906935,39.277308,Kansas,1325
Southwestern College,Doctor,-96.9783,37.2493,Kansas,1661
Sterling College,Bachelor,-98.209966,38.219783,Kansas,690
Tabor College,Master,-97.20096,38.348606,Kansas,736
Washburn University,Doctor,-95.702325,39.034977,Kansas,6973
Wichita State University,Doctor,-97.296733,37.716484,Kansas,14386
Alice Lloyd College,Bachelor,-82.875068,37.335087,Kentucky,631
Asbury University,Master,-84.662606,37.862029,Kentucky,1797
Bellarmine University,Doctor,-85.7049,38.219138,Kentucky,3419
Berea College,Bachelor,-84.289332,37.573334,Kentucky,1623
Brescia University,Master,-87.111533,37.768989,Kentucky,949
Campbellsville University,Master,-85.348943,37.343342,Kentucky,3520
Centre College,Bachelor,-84.779175,37.645102,Kentucky,1381
University of the Cumberlands,Doctor,-84.162375,36.736489,Kentucky,4924
Eastern Kentucky University,Doctor,-84.301356,37.740396,Kentucky,16111
Georgetown College,Master,-84.554583,38.207934,Kentucky,1399
Kentucky State University,Master,-84.855488,38.201056,Kentucky,2533
Kentucky Wesleyan College,Bachelor,-87.121984,37.744667,Kentucky,657
University of Kentucky,Doctor,-84.509177,38.032393,Kentucky,28435
Kentucky Christian University,Master,-82.946883,38.339002,Kentucky,594
Lindsey Wilson College,Master,-85.299909,37.101853,Kentucky,2644
University of Louisville,Doctor,-85.758843,38.215752,Kentucky,21444
Mid-Continent University,Master,-88.648361,36.815418,Kentucky,2251
Midway College,Master,-84.679335,38.144432,Kentucky,1351
Morehead State University,Doctor,-83.429742,38.188462,Kentucky,11358
Murray State University,Doctor,-88.323493,36.61241,Kentucky,10943
Northern Kentucky University,Doctor,-84.465959,39.029221,Kentucky,15263
University of Pikeville,Doctor,-82.520265,37.478835,Kentucky,2205
Saint Catharine College,Master,-85.261372,37.708833,Kentucky,767
Spalding University,Doctor,-85.75905,38.241815,Kentucky,2367
Thomas More College,Master,-84.568923,39.022963,Kentucky,1600
Transylvania University,Bachelor,-84.493883,38.053236,Kentucky,1082
Union College,Master,-83.887982,36.869066,Kentucky,1164
Western Kentucky University,Doctor,-86.455898,36.985718,Kentucky,20448
Centenary College of Louisiana,Master,-93.731518,32.483004,Louisiana,661
Dillard University,Bachelor,-90.065348,29.996468,Louisiana,1183
Grambling State University,Doctor,-92.717367,32.522702,Louisiana,5071
Louisiana State University-Alexandria,Bachelor,-92.414409,31.178616,Louisiana,2229
Louisiana State University and Agricultural & Mechanical College,Doctor,-91.196656,30.552111,Louisiana,30478
Louisiana State University-Shreveport,Master,-93.703762,32.428768,Louisiana,4114
Louisiana College,Master,-92.425567,31.322286,Louisiana,1400
Louisiana Tech University,Doctor,-92.64964,32.525518,Louisiana,11015
Loyola University New Orleans,Doctor,-90.120417,29.936141,Louisiana,4686
McNeese State University,Master,-93.215648,30.180762,Louisiana,8341
University of New Orleans,Doctor,-90.068506,30.028539,Louisiana,9323
Nicholls State University,Master,-90.802906,29.792689,Louisiana,6532
University of Louisiana at Monroe,Doctor,-92.073855,32.527957,Louisiana,8645
Northwestern State University of Louisiana,Master,-93.097715,31.750675,Louisiana,8944
Our Lady of Holy Cross College,Master,-89.997055,29.912539,Louisiana,1112
Southeastern Louisiana University,Doctor,-90.468558,30.51358,Louisiana,14934
Southern University and A & M College,Doctor,-91.190105,30.524558,Louisiana,6777
Southern University at New Orleans,Master,-90.044379,30.02669,Louisiana,2292
University of Louisiana at Lafayette,Doctor,-92.01941,30.215283,Louisiana,16646
Tulane University of Louisiana,Doctor,-90.120409,29.939696,Louisiana,12938
Xavier University of Louisiana,Doctor,-90.107307,29.964162,Louisiana,3121
College of the Atlantic,Master,-68.228849,44.399584,Maine,370
Bates College,Bachelor,-70.203333,44.105299,Maine,1791
Bowdoin College,Bachelor,-69.965165,43.906969,Maine,1795
Colby College,Bachelor,-69.66337,44.564211,Maine,1820
Husson University,Doctor,-68.791323,44.828888,Maine,3049
University of Maine at Augusta,Bachelor,-69.796396,44.337746,Maine,4770
University of Maine at Farmington,Master,-70.147469,44.668,Maine,2061
University of Maine at Fort Kent,Bachelor,-68.588364,47.250306,Maine,1209
University of Maine at Machias,Bachelor,-67.456534,44.709895,Maine,892
University of Maine,Doctor,-68.673839,44.895966,Maine,11247
Maine Maritime Academy,Master,-68.803214,44.3873,Maine,1018
University of Maine at Presque Isle,Bachelor,-68.016516,46.672377,Maine,1263
University of New England,Doctor,-70.385882,43.458172,Maine,6032
Saint Joseph's College of Maine,Master,-70.483486,43.82651,Maine,1614
University of Southern Maine,Doctor,-70.276002,43.662637,Maine,8923
Thomas College,Master,-69.662923,44.524046,Maine,1522
Unity College,Bachelor,-69.332276,44.603165,Maine,553
University of Baltimore,Doctor,-76.616591,39.305834,Maryland,6518
Bowie State University,Doctor,-76.759721,39.018185,Maryland,5561
Washington Adventist University,Master,-77.00131,38.987206,Maryland,1185
Coppin State University,Doctor,-76.658547,39.310786,Maryland,3383
Frostburg State University,Doctor,-78.933871,39.651509,Maryland,5473
Goucher College,Master,-76.594843,39.410175,Maryland,2111
Hood College,Master,-77.419282,39.421908,Maryland,2392
Johns Hopkins University,Doctor,-76.620799,39.32838,Maryland,20918
Loyola University Maryland,Doctor,-76.623417,39.346044,Maryland,5977
University of Maryland-University College,Doctor,-76.954104,38.986299,Maryland,39557
University of Maryland-Baltimore County,Doctor,-76.711607,39.256686,Maryland,13908
University of Maryland-College Park,Doctor,-76.939704,38.988607,Maryland,37272
University of Maryland Eastern Shore,Doctor,-75.687227,38.211188,Maryland,4220
Morgan State University,Doctor,-76.584238,39.344235,Maryland,7546
Mount St Mary's University,Master,-77.35222,39.680632,Maryland,2240
Notre Dame of Maryland University,Doctor,-76.619701,39.351307,Maryland,2877
Salisbury University,Doctor,-75.605705,38.345447,Maryland,8643
St Mary's College of Maryland,Master,-76.425706,38.188615,Maryland,1858
Sojourner-Douglass College,Master,-76.598191,39.296333,Maryland,1080
St John's College,Master,-76.491397,38.981513,Maryland,490
Towson University,Doctor,-76.612268,39.393008,Maryland,22499
Maryland University of Integrative Health,Master,-76.888025,39.165872,Maryland,591
Stevenson University,Master,-76.701247,39.421264,Maryland,4404
Washington College,Master,-76.06878,39.217329,Maryland,1512
McDaniel College,Master,-77.001662,39.584879,Maryland,3229
American International College,Doctor,-72.558507,42.112708,Massachusetts,3657
Amherst College,Bachelor,-72.518493,42.372459,Massachusetts,1785
Anna Maria College,Master,-71.918961,42.33055,Massachusetts,1540
Assumption College,Master,-71.828387,42.295435,Massachusetts,2756
Bay Path College,Master,-72.583974,42.055364,Massachusetts,2357
Becker College,Bachelor,-71.811895,42.26918,Massachusetts,1902
Bentley University,Doctor,-71.220148,42.388798,Massachusetts,5658
Boston College,Doctor,-71.171488,42.337688,Massachusetts,14309
Boston University,Doctor,-71.09984,42.349581,Massachusetts,32411
Brandeis University,Doctor,-71.254716,42.364947,Massachusetts,5825
Bridgewater State University,Master,-70.966058,41.987785,Massachusetts,11267
Cambridge College,Doctor,-71.11084,42.369193,Massachusetts,3114
Clark University,Doctor,-71.823537,42.251064,Massachusetts,3551
Curry College,Master,-71.114007,42.240616,Massachusetts,3074
Eastern Nazarene College,Master,-71.011238,42.271214,Massachusetts,1478
Emerson College,Master,-71.074037,42.35532,Massachusetts,4561
Emmanuel College,Master,-71.103038,42.341191,Massachusetts,2436
Endicott College,Doctor,-70.840729,42.554177,Massachusetts,5029
Fisher College,Bachelor,-71.074125,42.355253,Massachusetts,1930
Fitchburg State University,Master,-71.789354,42.589345,Massachusetts,6680
Framingham State University,Master,-71.437175,42.297289,Massachusetts,6429
Gordon College,Master,-70.819133,42.588173,Massachusetts,2073
Hampshire College,Bachelor,-72.532401,42.324772,Massachusetts,1492
Harvard University,Doctor,-71.118177,42.374429,Massachusetts,28297
College of the Holy Cross,Bachelor,-71.808627,42.238942,Massachusetts,2912
Lasell College,Master,-71.243738,42.342712,Massachusetts,2081
Lesley University,Doctor,-71.115601,42.378429,Massachusetts,5195
University of Massachusetts-Lowell,Doctor,-71.325081,42.65372,Massachusetts,16932
University of Massachusetts-Amherst,Doctor,-72.52613,42.386105,Massachusetts,28518
University of Massachusetts-Boston,Doctor,-71.038653,42.314541,Massachusetts,16277
Massachusetts Institute of Technology,Doctor,-71.092115,42.360095,Massachusetts,11301
Massachusetts Maritime Academy,Master,-70.623953,41.740538,Massachusetts,1476
Merrimack College,Master,-71.124216,42.668352,Massachusetts,3067
Mount Holyoke College,Master,-72.573625,42.257588,Massachusetts,2251
Mount Ida College,Master,-71.194658,42.293205,Massachusetts,1288
Newbury College,Bachelor,-71.142082,42.331032,Massachusetts,962
Nichols College,Master,-71.929644,42.042462,Massachusetts,1459
Massachusetts College of Liberal Arts,Master,-73.1035,42.692427,Massachusetts,1716
Northeastern University,Doctor,-71.088782,42.339992,Massachusetts,20053
College of Our Lady of the Elms,Master,-72.601541,42.14179,Massachusetts,1678
Pine Manor College,Master,-71.156973,42.319568,Massachusetts,346
Salem State University,Master,-70.889321,42.502879,Massachusetts,9301
Simmons College,Doctor,-71.099967,42.3393,Massachusetts,4655
Bard College at Simon's Rock,Bachelor,-73.380008,42.209241,Massachusetts,350
Smith College,Doctor,-72.638094,42.317933,Massachusetts,3033
Springfield College,Doctor,-72.555688,42.105033,Massachusetts,3255
University of Massachusetts-Dartmouth,Doctor,-71.005528,41.628861,Massachusetts,9053
Stonehill College,Bachelor,-71.078123,42.061448,Massachusetts,2481
Suffolk University,Doctor,-71.061969,42.359088,Massachusetts,8675
Tufts University,Doctor,-71.120641,42.406004,Massachusetts,10872
Wellesley College,Bachelor,-71.307966,42.293765,Massachusetts,2474
Wentworth Institute of Technology,Master,-71.094983,42.336632,Massachusetts,4179
Western New England University,Doctor,-72.518789,42.115837,Massachusetts,3800
Westfield State University,Master,-72.795673,42.131589,Massachusetts,6371
Wheaton College,Bachelor,-71.184167,41.966813,Massachusetts,1654
Wheelock College,Master,-71.10582,42.342503,Massachusetts,1378
Williams College,Master,-73.205888,42.711669,Massachusetts,2150
Worcester Polytechnic Institute,Doctor,-71.808792,42.275067,Massachusetts,6296
Worcester State University,Master,-71.844019,42.267534,Massachusetts,6447
Adrian College,Master,-84.059947,41.898449,Michigan,1658
Albion College,Bachelor,-84.746088,42.244603,Michigan,1307
Alma College,Bachelor,-84.670073,43.379236,Michigan,1419
Andrews University,Doctor,-86.355149,41.963266,Michigan,3516
Aquinas College,Master,-85.626166,42.960449,Michigan,2001
Baker College of Owosso,Bachelor,-84.170882,42.987045,Michigan,2828
Baker College of Flint,Bachelor,-83.694679,42.974764,Michigan,4977
Calvin College,Master,-85.587548,42.929916,Michigan,4034
Central Michigan University,Doctor,-84.775275,43.591137,Michigan,26841
Concordia University-Ann Arbor,Master,-83.682676,42.274723,Michigan,740
Davenport University,Master,-85.529655,42.849713,Michigan,9591
University of Detroit Mercy,Doctor,-83.138369,42.417168,Michigan,5112
Eastern Michigan University,Doctor,-83.624499,42.245751,Michigan,23447
Ferris State University,Doctor,-85.483509,43.687464,Michigan,14707
Kettering University,Master,-83.714356,43.013112,Michigan,1985
Grace Bible College,Bachelor,-85.692077,42.919541,Michigan,579
Cornerstone University,Master,-85.595602,42.979044,Michigan,2809
Grand Valley State University,Doctor,-85.887519,42.965208,Michigan,24477
Hope College,Bachelor,-86.105376,42.788052,Michigan,3388
Kalamazoo College,Bachelor,-85.601317,42.290382,Michigan,1458
Lake Superior State University,Master,-84.3655,46.491736,Michigan,2435
Lawrence Technological University,Doctor,-83.25003,42.474072,Michigan,4002
Madonna University,Doctor,-83.407306,42.386463,Michigan,4399
Marygrove College,Master,-83.154109,42.414415,Michigan,1960
Rochester College,Master,-83.144959,42.667521,Michigan,1129
University of Michigan-Ann Arbor,Doctor,-83.74313,42.276172,Michigan,43710
Michigan State University,Doctor,-84.473639,42.72476,Michigan,49317
Michigan Technological University,Doctor,-88.546403,47.1183,Michigan,6975
University of Michigan-Dearborn,Doctor,-83.231417,42.317287,Michigan,8748
University of Michigan-Flint,Doctor,-83.688474,43.018777,Michigan,8555
Baker College of Muskegon,Bachelor,-86.196717,43.244133,Michigan,4021
Northern Michigan University,Master,-87.403857,46.558037,Michigan,8918
Oakland University,Doctor,-83.218866,42.672586,Michigan,20169
Olivet College,Master,-84.922864,42.440908,Michigan,1133
Kuyper College,Bachelor,-85.592657,43.02195,Michigan,291
Saginaw Valley State University,Doctor,-83.96434,43.55187,Michigan,10240
Siena Heights University,Master,-84.015144,41.905952,Michigan,2684
Spring Arbor University,Master,-84.551918,42.206233,Michigan,3962
Finlandia University,Bachelor,-88.589392,47.12709,Michigan,525
Wayne State University,Doctor,-83.072864,42.35861,Michigan,27897
Western Michigan University,Doctor,-85.61512,42.282589,Michigan,24294
Augsburg College,Doctor,-93.241418,44.965636,Minnesota,3554
Bemidji State University,Master,-94.874529,47.482505,Minnesota,4963
Bethany Lutheran College,Bachelor,-93.990744,44.166485,Minnesota,579
Bethel University,Doctor,-93.159295,45.057091,Minnesota,4340
Carleton College,Bachelor,-93.154662,44.462304,Minnesota,2045
Concordia College at Moorhead,Master,-96.765567,46.859423,Minnesota,2558
Concordia University-Saint Paul,Master,-93.154369,44.951231,Minnesota,3661
Martin Luther College,Master,-94.473422,44.3046,Minnesota,824
Gustavus Adolphus College,Bachelor,-93.971928,44.324968,Minnesota,2449
Hamline University,Doctor,-93.163983,44.965696,Minnesota,4581
Macalester College,Bachelor,-93.169855,44.936709,Minnesota,2039
Minnesota State University-Mankato,Doctor,-93.998494,44.147253,Minnesota,15426
Metropolitan State University,Doctor,-93.074153,44.957017,Minnesota,8510
University of Minnesota-Twin Cities,Doctor,-93.235352,44.977886,Minnesota,51526
University of Minnesota-Crookston,Bachelor,-96.609863,47.802021,Minnesota,2839
University of Minnesota-Duluth,Doctor,-92.085177,46.818896,Minnesota,11241
University of Minnesota-Morris,Bachelor,-95.901756,45.589829,Minnesota,1946
Minnesota State University-Moorhead,Doctor,-96.763376,46.866482,Minnesota,6634
North Central University,Bachelor,-93.261429,44.969389,Minnesota,1305
University of Northwestern-St Paul,Master,-93.171579,45.032969,Minnesota,3352
College of Saint Benedict,Bachelor,-94.31902,45.558609,Minnesota,2051
Saint Cloud State University,Doctor,-94.153,45.552418,Minnesota,16765
Saint Johns University,Master,-94.39268,45.580538,Minnesota,1979
Saint Mary's University of Minnesota,Doctor,-91.696652,44.045322,Minnesota,5528
St Olaf College,Bachelor,-93.183633,44.462884,Minnesota,3125
Crown College,Master,-93.743015,44.885372,Minnesota,1323
The College of Saint Scholastica,Doctor,-92.105738,46.81544,Minnesota,4206
University of St Thomas,Doctor,-93.189422,44.941662,Minnesota,10192
St Catherine University,Doctor,-93.181925,44.924542,Minnesota,5017
Southwest Minnesota State University,Master,-95.75983,44.455023,Minnesota,6917
Winona State University,Doctor,-91.64447,44.046572,Minnesota,8782
Alcorn State University,Master,-91.142854,31.877216,Mississippi,3848
Belhaven University,Master,-90.169228,32.318415,Mississippi,4025
Blue Mountain College,Master,-89.02924,34.67209,Mississippi,532
Delta State University,Doctor,-90.734378,33.743896,Mississippi,4785
Jackson State University,Doctor,-90.20663,32.296781,Mississippi,9134
Millsaps College,Master,-90.178084,32.3231,Mississippi,804
University of Mississippi,Doctor,-89.539377,34.362144,Mississippi,19431
Mississippi University for Women,Doctor,-88.418601,33.493305,Mississippi,2629
Mississippi Valley State University,Master,-90.341274,33.514142,Mississippi,2203
Mississippi College,Doctor,-90.330452,32.334565,Mississippi,4921
Mississippi State University,Doctor,-88.78834,33.455241,Mississippi,20161
Rust College,Bachelor,-89.446999,34.776862,Mississippi,922
University of Southern Mississippi,Doctor,-89.33791,31.327499,Mississippi,15249
Tougaloo College,Bachelor,-90.159405,32.402719,Mississippi,878
William Carey University,Doctor,-89.291815,31.305264,Mississippi,3882
Avila University,Master,-94.591387,38.912159,Missouri,1971
Central Methodist University-College of Liberal Arts and Sciences,Bachelor,-92.685276,39.150534,Missouri,1107
University of Central Missouri,Master,-93.737445,38.755882,Missouri,12513
Columbia College,Master,-92.326544,38.957899,Missouri,16946
Culver-Stockton College,Master,-91.526682,40.130064,Missouri,843
Drury University,Master,-93.285773,37.219757,Missouri,4649
Evangel University,Master,-93.262614,37.220956,Missouri,2274
Fontbonne University,Master,-90.315712,38.642697,Missouri,1997
Hannibal-LaGrange University,Master,-91.391423,39.730785,Missouri,1229
Harris-Stowe State University,Bachelor,-90.224288,38.631744,Missouri,1298
Lincoln University,Master,-92.168509,38.564409,Missouri,3043
Lindenwood University,Doctor,-90.502825,38.788203,Missouri,12213
Maryville University of Saint Louis,Doctor,-90.505096,38.645474,Missouri,5033
Missouri Baptist University,Doctor,-90.462606,38.642017,Missouri,5345
Missouri Southern State University,Master,-94.460893,37.095722,Missouri,5616
Missouri Valley College,Master,-93.190236,39.108655,Missouri,1668
Missouri Western State University,Master,-94.785643,39.7575,Missouri,5795
University of Missouri-Columbia,Doctor,-92.326429,38.941015,Missouri,34616
University of Missouri-Kansas City,Doctor,-94.578039,39.035366,Missouri,15718
Missouri University of Science and Technology,Doctor,-91.7759,37.955853,Missouri,8129
University of Missouri-St Louis,Doctor,-90.308886,38.711297,Missouri,16809
Truman State University,Master,-92.580531,40.188238,Missouri,6225
Northwest Missouri State University,Master,-94.884341,40.352706,Missouri,6485
College of the Ozarks,Bachelor,-93.238174,36.616019,Missouri,1513
Park University,Master,-94.677086,39.189477,Missouri,10978
Rockhurst University,Doctor,-94.571249,39.030843,Missouri,2920
Saint Louis University,Doctor,-90.23343,38.636516,Missouri,17343
Southwest Baptist University,Doctor,-93.410451,37.601603,Missouri,3812
Stephens College,Master,-92.322997,38.950631,Missouri,854
Southeast Missouri State University,Master,-89.529119,37.31575,Missouri,11767
Missouri State University-Springfield,Doctor,-93.276821,37.197983,Missouri,21271
Washington University in St Louis,Doctor,-90.311639,38.648125,Missouri,14032
Webster University,Doctor,-90.345654,38.589269,Missouri,17904
Westminster College,Bachelor,-91.954345,38.847764,Missouri,1026
William Jewell College,Bachelor,-94.41207,39.247848,Missouri,1044
William Woods University,Doctor,-91.949273,38.857864,Missouri,2136
Carroll College,Bachelor,-112.04053,46.602202,Montana,1431
Montana State University-Billings,Master,-108.523009,45.796896,Montana,4969
University of Great Falls,Master,-111.270167,47.490279,Montana,1138
Montana Tech of the University of Montana,Master,-112.557,46.012164,Montana,2010
Montana State University,Doctor,-111.049918,45.666829,Montana,14852
The University of Montana,Doctor,-113.98294,46.861074,Montana,14525
Montana State University-Northern,Master,-109.686457,48.541054,Montana,1334
Rocky Mountain College,Master,-108.553899,45.796765,Montana,1067
The University of Montana-Western,Bachelor,-112.639264,45.208306,Montana,1455
Bellevue University,Doctor,-95.91764,41.150225,Nebraska,9788
Chadron State College,Master,-103.002793,42.820672,Nebraska,3056
Concordia University-Nebraska,Master,-97.089054,40.914853,Nebraska,2206
Creighton University,Doctor,-95.947029,41.265325,Nebraska,8019
Doane College-Crete,Bachelor,-96.949656,40.623107,Nebraska,1113
Grace University,Master,-95.92789,41.244723,Nebraska,481
Hastings College,Master,-98.373641,40.590448,Nebraska,1144
University of Nebraska at Kearney,Master,-99.098237,40.700787,Nebraska,7052
Midland University,Master,-96.488354,41.43675,Nebraska,1288
University of Nebraska at Omaha,Doctor,-96.010797,41.257746,Nebraska,15227
Nebraska Wesleyan University,Master,-96.648414,40.838789,Nebraska,2149
University of Nebraska-Lincoln,Doctor,-96.702177,40.822272,Nebraska,24445
Peru State College,Master,-95.732731,40.474689,Nebraska,2422
College of Saint Mary,Doctor,-96.020209,41.240879,Nebraska,970
Union College,Master,-96.651095,40.774778,Nebraska,911
Wayne State College,Master,-97.014241,42.241612,Nebraska,3506
York College,Master,-97.579285,40.867453,Nebraska,470
University of Nevada-Las Vegas,Doctor,-115.141153,36.106994,Nevada,27848
University of Nevada-Reno,Doctor,-119.821651,39.549352,Nevada,18776
Great Basin College,Bachelor,-115.76733,40.84242,Nevada,3181
Sierra Nevada College,Master,-119.939523,39.24586,Nevada,955
Colby-Sawyer College,Bachelor,-71.975805,43.411663,New Hampshire,1409
Dartmouth College,Doctor,-72.289951,43.70408,New Hampshire,6342
Franklin Pierce University,Doctor,-72.057875,42.782305,New Hampshire,2204
New England College,Doctor,-71.822928,43.177005,New Hampshire,2224
Southern New Hampshire University,Doctor,-71.453938,43.039892,New Hampshire,28389
University of New Hampshire-Main Campus,Doctor,-70.934512,43.134235,New Hampshire,14913
Keene State College,Master,-72.281433,42.925999,New Hampshire,4923
University of New Hampshire at Manchester,Bachelor,-71.468764,42.990331,New Hampshire,926
Plymouth State University,Doctor,-71.691164,43.757386,New Hampshire,5236
Rivier University,Doctor,-71.455466,42.738343,New Hampshire,2346
Saint Anselm College,Bachelor,-71.508177,42.985066,New Hampshire,1923
Granite State College,Master,-71.527241,43.1929,New Hampshire,2058
Thomas More College of Liberal Arts,Bachelor,-71.48364,42.807701,New Hampshire,80
Bloomfield College,Master,-74.19593,40.794218,New Jersey,1979
Caldwell College,Doctor,-74.273697,40.834285,New Jersey,2160
Centenary College,Master,-74.832775,40.848693,New Jersey,2400
Drew University,Doctor,-74.425825,40.757026,New Jersey,2291
Fairleigh Dickinson University-Metropolitan Campus,Doctor,-74.030023,40.896162,New Jersey,8546
Felician College,Doctor,-74.096452,40.867272,New Jersey,1933
Fairleigh Dickinson University-College at Florham,Doctor,-74.435359,40.777364,New Jersey,3029
Georgian Court University,Master,-74.22622,40.098706,New Jersey,2257
Rowan University,Doctor,-75.117974,39.709768,New Jersey,13349
New Jersey City University,Doctor,-74.08727,40.709937,New Jersey,8442
Kean University,Doctor,-74.234668,40.679429,New Jersey,14404
Monmouth University,Doctor,-74.006447,40.280066,New Jersey,6316
Montclair State University,Doctor,-74.199455,40.859233,New Jersey,19464
New Jersey Institute of Technology,Doctor,-74.177113,40.741997,New Jersey,10130
Princeton University,Doctor,-74.663708,40.348496,New Jersey,8014
Ramapo College of New Jersey,Master,-74.116384,41.007523,New Jersey,5852
Rider University,Master,-74.742822,40.283122,New Jersey,5410
Rutgers University-Camden,Doctor,-75.125303,39.948628,New Jersey,6264
Rutgers University-New Brunswick,Doctor,-74.45051,40.503796,New Jersey,48036
Rutgers University-Newark,Doctor,-74.175294,40.741303,New Jersey,11212
Saint Peter's University,Doctor,-74.071541,40.727105,New Jersey,3194
Seton Hall University,Doctor,-74.248753,40.742859,New Jersey,9903
College of Saint Elizabeth,Doctor,-74.436039,40.781061,New Jersey,1552
Stevens Institute of Technology,Doctor,-74.025334,40.744776,New Jersey,5784
The Richard Stockton College of New Jersey,Doctor,-74.531087,39.492036,New Jersey,8458
Thomas Edison State College,Master,-74.769652,40.22011,New Jersey,20877
The College of New Jersey,Master,-74.777412,40.268742,New Jersey,7340
William Paterson University of New Jersey,Doctor,-74.199465,40.946256,New Jersey,11414
Eastern New Mexico University-Main Campus,Master,-103.347294,34.17826,New Mexico,5847
New Mexico Highlands University,Master,-105.222824,35.598982,New Mexico,3690
New Mexico Institute of Mining and Technology,Doctor,-106.907491,34.066035,New Mexico,2134
University of New Mexico-Main Campus,Doctor,-106.620155,35.083868,New Mexico,28592
New Mexico State University-Main Campus,Doctor,-106.747841,32.282875,New Mexico,16765
Northern New Mexico College,Bachelor,-106.084395,36.004073,New Mexico,1681
University of the Southwest,Master,-103.186948,32.775496,New Mexico,923
Western New Mexico University,Master,-108.284768,32.776962,New Mexico,3560
Vaughn College of Aeronautics and Technology,Master,-73.881721,40.768348,New York,1741
Adelphi University,Doctor,-73.653321,40.721439,New York,7645
Alfred University,Doctor,-77.788625,42.255866,New York,2431
Bard College,Doctor,-73.906243,42.021803,New York,2355
Barnard College,Bachelor,-73.964027,40.809137,New York,2489
Boricua College,Master,-73.9458,40.833434,New York,1118
Canisius College,Master,-78.851794,42.925319,New York,4537
Cazenovia College,Bachelor,-75.854054,42.931946,New York,1077
Clarkson University,Doctor,-74.999947,44.663761,New York,3726
Colgate University,Master,-75.535,42.8188,New York,2900
Metropolitan College of New York,Master,-74.007056,40.723516,New York,1255
Columbia University in the City of New York,Doctor,-73.961885,40.808286,New York,26957
Concordia College-New York,Master,-73.82212,40.94253,New York,953
Cooper Union for the Advancement of Science and Art,Master,-73.990516,40.72938,New York,920
Cornell University,Doctor,-76.48269,42.445291,New York,21593
CUNY Bernard M Baruch College,Master,-73.983417,40.740238,New York,17505
CUNY Brooklyn College,Master,-73.95312,40.631912,New York,17004
College of Staten Island CUNY,Master,-74.148701,40.603949,New York,14441
CUNY City College,Doctor,-73.95055,40.819794,New York,15331
CUNY Graduate School and University Center,Doctor,-73.983575,40.748503,New York,6736
CUNY Hunter College,Doctor,-73.964795,40.768669,New York,23019
CUNY John Jay College of Criminal Justice,Master,-73.988381,40.770675,New York,15010
CUNY Lehman College,Master,-73.894627,40.873928,New York,12085
CUNY Medgar Evers College,Bachelor,-73.957076,40.666256,New York,6477
CUNY New York City College of Technology,Bachelor,-73.987856,40.695483,New York,16860
CUNY Queens College,Master,-73.815387,40.737771,New York,18974
CUNY York College,Master,-73.794586,40.702661,New York,8307
D'Youville College,Doctor,-78.890369,42.902263,New York,3150
Daemen College,Doctor,-78.789025,42.965024,New York,2871
Dominican College of Blauvelt,Doctor,-73.95234,41.054111,New York,1998
Dowling College,Doctor,-73.164816,40.746051,New York,3198
Elmira College,Master,-76.811333,42.092724,New York,1542
Fashion Institute of Technology,Master,-73.994781,40.74731,New York,9755
Fordham University,Doctor,-73.889578,40.861183,New York,15097
Hamilton College,Bachelor,-75.408853,43.047809,New York,1926
Hartwick College,Bachelor,-75.073609,42.454023,New York,1618
Hilbert College,Master,-78.82029,42.75505,New York,1070
Hobart William Smith Colleges,Master,-76.984813,42.858562,New York,2372
Hofstra University,Doctor,-73.60078,40.715959,New York,10928
Houghton College,Master,-78.156882,42.426841,New York,1100
Iona College,Master,-73.785635,40.927107,New York,4241
Ithaca College,Doctor,-76.495057,42.42264,New York,6723
Keuka College,Master,-77.090518,42.61541,New York,2036
Le Moyne College,Master,-76.088449,43.047316,New York,3319
LIU Brooklyn,Doctor,-73.980872,40.690134,New York,8483
LIU Post,Doctor,-73.593279,40.820043,New York,10599
LIU Brentwood,Master,-73.287113,40.803845,New York,270
Manhattan College,Master,-73.901893,40.889756,New York,3883
Manhattanville College,Doctor,-73.718316,41.031054,New York,2750
Marist College,Master,-73.934342,41.721955,New York,6365
Marymount Manhattan College,Bachelor,-73.959676,40.769108,New York,1833
Medaille College,Doctor,-78.856569,42.92895,New York,2390
Mercy College,Doctor,-73.874571,41.021436,New York,11648
Molloy College,Doctor,-73.626278,40.68597,New York,4455
Mount Saint Mary College,Master,-74.012906,41.511212,New York,2556
College of Mount Saint Vincent,Master,-73.907019,40.912814,New York,1938
Nazareth College,Doctor,-77.514417,43.102406,New York,2823
The College of New Rochelle,Master,-73.781104,40.899427,New York,3966
The New School,Doctor,-73.994636,40.735275,New York,10301
New York University,Doctor,-73.997264,40.729452,New York,44599
Niagara University,Doctor,-79.046229,43.132713,New York,4056
New York Institute of Technology,Doctor,-73.608885,40.814402,New York,7545
Nyack College,Doctor,-73.931106,41.086425,New York,3082
Pace University-New York,Doctor,-74.004719,40.711014,New York,12624
Paul Smiths College of Arts and Science,Bachelor,-74.253006,44.437366,New York,981
Polytechnic Institute of New York University,Doctor,-73.986774,40.694371,New York,4890
Rensselaer Polytechnic Institute,Doctor,-73.678768,42.728983,New York,6714
Roberts Wesleyan College,Master,-77.798964,43.126747,New York,1735
Rochester Institute of Technology,Doctor,-77.67521,43.090325,New York,16583
University of Rochester,Doctor,-77.631042,43.126437,New York,11020
The Sage Colleges,Doctor,-73.693711,42.72821,New York,2832
St Bonaventure University,Master,-78.47586,42.07863,New York,2244
St Francis College,Master,-73.991653,40.693076,New York,2819
St Lawrence University,Master,-75.161343,44.589879,New York,2506
The College of Saint Rose,Master,-73.78611,42.664664,New York,4542
St Thomas Aquinas College,Master,-73.934182,41.041126,New York,1972
Sarah Lawrence College,Master,-73.84381,40.934147,New York,1782
Siena College,Master,-73.75153,42.718586,New York,3207
Skidmore College,Master,-73.785108,43.092696,New York,2702
Saint Joseph's College-New York,Master,-73.968037,40.690485,New York,5354
Saint John Fisher College,Doctor,-77.516979,43.117064,New York,3987
St John's University-New York,Doctor,-73.795301,40.721979,New York,20729
SUNY College of Technology at Alfred,Bachelor,-77.791057,42.258745,New York,3555
SUNY College of Technology at Canton,Bachelor,-75.185005,44.607346,New York,3512
SUNY College of Technology at Delhi,Bachelor,-74.924225,42.270129,New York,3308
SUNY College of Agriculture and Technology at Cobleskill,Bachelor,-74.504897,42.661622,New York,2453
Farmingdale State College,Bachelor,-73.426371,40.75408,New York,8162
Morrisville State College,Bachelor,-75.604369,42.891392,New York,3028
SUNY at Albany,Doctor,-73.825014,42.686917,New York,17338
SUNY at Binghamton,Doctor,-75.971143,42.088049,New York,16077
University at Buffalo,Doctor,-78.790103,43.001433,New York,29850
Stony Brook University,Doctor,-73.123595,40.913138,New York,24143
SUNY College of Environmental Science and Forestry,Doctor,-76.139236,43.034355,New York,2229
SUNY Institute of Technology at Utica-Rome,Master,-75.2292,43.13528,New York,2480
SUNY College at Brockport,Master,-77.949824,43.209862,New York,8128
Buffalo State SUNY,Master,-78.88067,42.934199,New York,11091
SUNY College at Cortland,Master,-76.197909,42.590158,New York,7110
SUNY at Fredonia,Master,-79.336109,42.450961,New York,5391
SUNY College at Geneseo,Master,-77.821999,42.796864,New York,5644
State University of New York at New Paltz,Master,-74.088727,41.737205,New York,7578
SUNY Oneonta,Master,-75.064186,42.466555,New York,6034
SUNY College at Oswego,Master,-76.543885,43.453047,New York,8117
SUNY College at Potsdam,Master,-74.976889,44.662862,New York,4042
SUNY at Purchase College,Master,-73.700127,41.047092,New York,4353
SUNY College at Old Westbury,Master,-73.570966,40.789842,New York,4367
SUNY College at Plattsburgh,Master,-73.467342,44.691103,New York,6051
SUNY Empire State College,Master,-73.779915,43.078304,New York,11823
SUNY Maritime College,Master,-73.800336,40.809048,New York,1755
Syracuse University,Doctor,-76.136738,43.040525,New York,21267
Teachers College at Columbia University,Doctor,-73.960399,40.810311,New York,5149
Touro College,Doctor,-73.989932,40.742172,New York,13868
Excelsior College,Master,-73.862204,42.704887,New York,39897
Union College,Bachelor,-73.928498,42.817578,New York,2246
United States Merchant Marine Academy,Master,-73.762534,40.812154,New York,985
Utica College,Doctor,-75.272407,43.095183,New York,4028
Vassar College,Master,-73.894345,41.685105,New York,2477
Wagner College,Master,-74.09573,40.615003,New York,2245
Wells College,Bachelor,-76.696512,42.744314,New York,534
Yeshiva University,Doctor,-73.928541,40.8508,New York,6747
Appalachian State University,Doctor,-81.680234,36.214844,North Carolina,17838
Barton College,Master,-77.913805,35.735463,North Carolina,1065
Belmont Abbey College,Bachelor,-81.041847,35.261276,North Carolina,1647
Bennett College,Bachelor,-79.77998,36.067531,North Carolina,680
Brevard College,Bachelor,-82.729763,35.237657,North Carolina,701
Campbell University,Doctor,-78.739508,35.409333,North Carolina,6122
Catawba College,Master,-80.486575,35.692445,North Carolina,1310
Chowan University,Master,-77.099141,36.436258,North Carolina,1367
Davidson College,Bachelor,-80.845236,35.500006,North Carolina,1788
Duke University,Doctor,-78.94226,36.00159,North Carolina,15467
East Carolina University,Doctor,-77.366199,35.606347,North Carolina,26887
Elizabeth City State University,Master,-76.210063,36.273539,North Carolina,2421
Elon University,Doctor,-79.505632,36.104149,North Carolina,6305
Fayetteville State University,Doctor,-78.894709,35.072485,North Carolina,6179
Gardner-Webb University,Doctor,-81.668141,35.24732,North Carolina,4656
Greensboro College,Master,-79.800232,36.071082,North Carolina,1012
Guilford College,Bachelor,-79.888848,36.092563,North Carolina,2302
High Point University,Doctor,-79.994545,35.972674,North Carolina,4199
Johnson C Smith University,Bachelor,-80.854842,35.243384,North Carolina,1387
Lees-McRae College,Bachelor,-81.870998,36.16362,North Carolina,890
Lenoir-Rhyne University,Master,-81.326161,35.73904,North Carolina,1898
Livingstone College,Bachelor,-80.484459,35.670743,North Carolina,1175
Mars Hill University,Master,-82.550859,35.825858,North Carolina,1440
Meredith College,Master,-78.689175,35.797197,North Carolina,1872
Methodist University,Master,-78.875024,35.137854,North Carolina,2463
Montreat College,Master,-82.297522,35.645844,North Carolina,926
Mount Olive College,Bachelor,-78.071265,35.206314,North Carolina,3414
North Carolina A & T State University,Doctor,-79.770152,36.076737,North Carolina,10561
University of North Carolina at Asheville,Master,-82.565259,35.616618,North Carolina,3784
University of North Carolina at Chapel Hill,Doctor,-79.050969,35.912165,North Carolina,29127
University of North Carolina at Charlotte,Doctor,-80.73579,35.306834,North Carolina,26571
University of North Carolina at Greensboro,Doctor,-79.809844,36.067503,North Carolina,18074
North Carolina Central University,Doctor,-78.898602,35.974237,North Carolina,8093
North Carolina State University at Raleigh,Doctor,-78.674517,35.785111,North Carolina,34009
North Carolina Wesleyan College,Bachelor,-77.774231,36.017443,North Carolina,1602
University of North Carolina Wilmington,Doctor,-77.875527,34.225223,North Carolina,13937
William Peace University,Bachelor,-78.636793,35.789105,North Carolina,1007
University of North Carolina at Pembroke,Master,-79.201895,34.687231,North Carolina,6222
Pfeiffer University,Master,-80.283168,35.484696,North Carolina,1860
Queens University of Charlotte,Master,-80.832227,35.188929,North Carolina,2285
Mid-Atlantic Christian University,Bachelor,-76.217496,36.303765,North Carolina,162
Saint Augustine's University,Bachelor,-78.621806,35.785032,North Carolina,1299
Salem College,Master,-80.241357,36.087531,North Carolina,1187
Shaw University,Master,-78.637693,35.771181,North Carolina,2062
St Andrews University,Master,-79.478385,34.746283,North Carolina,635
Wake Forest University,Doctor,-80.279004,36.135301,North Carolina,7602
Warren Wilson College,Master,-82.441097,35.611762,North Carolina,893
Wingate University,Doctor,-80.444465,34.979384,North Carolina,3002
Winston-Salem State University,Doctor,-80.224905,36.089197,North Carolina,5399
Western Carolina University,Doctor,-83.125447,35.28149,North Carolina,10107
Dickinson State University,Bachelor,-102.800511,46.882677,North Dakota,1449
University of Jamestown,Doctor,-98.697209,46.915402,North Dakota,997
University of Mary,Doctor,-100.752386,46.724893,North Dakota,2910
Mayville State University,Bachelor,-97.322545,47.504671,North Dakota,1065
Minot State University,Master,-101.300624,48.246877,North Dakota,3533
University of North Dakota,Doctor,-97.070823,47.921881,North Dakota,15143
North Dakota State University-Main Campus,Doctor,-96.805689,46.894523,North Dakota,14629
Valley City State University,Master,-98.001762,46.919144,North Dakota,1366
University of Akron Main Campus,Doctor,-81.510328,41.077768,Ohio,24932
Ashland University,Doctor,-82.320621,40.860987,Ohio,5979
Baldwin Wallace University,Master,-81.849112,41.373938,Ohio,4053
Bluffton University,Master,-83.897678,40.896998,Ohio,1146
Bowling Green State University-Main Campus,Doctor,-83.637531,41.377036,Ohio,16958
Capital University,Doctor,-82.937867,39.954875,Ohio,3628
Case Western Reserve University,Doctor,-81.605769,41.500812,Ohio,10325
Cedarville University,Doctor,-83.812098,39.750338,Ohio,3462
Central State University,Master,-83.876795,39.716465,Ohio,2068
University of Cincinnati-Main Campus,Doctor,-84.51428,39.131159,Ohio,34379
Ohio Christian University,Master,-82.905986,39.610895,Ohio,3711
Cleveland State University,Doctor,-81.673052,41.502918,Ohio,17497
University of Dayton,Doctor,-84.173662,39.73686,Ohio,10835
Defiance College,Master,-84.356596,41.300336,Ohio,989
Denison University,Bachelor,-82.520625,40.072582,Ohio,2274
The University of Findlay,Doctor,-83.652067,41.05441,Ohio,4880
Heidelberg University,Master,-83.166581,41.114337,Ohio,1241
Hiram College,Master,-81.141552,41.310998,Ohio,1311
John Carroll University,Master,-81.533103,41.488978,Ohio,3711
Kent State University at Salem,Bachelor,-80.835458,40.86408,Ohio,1846
Kent State University at Kent,Doctor,-81.342253,41.146856,Ohio,28998
Kenyon College,Bachelor,-82.397977,40.374408,Ohio,1705
Lake Erie College,Master,-81.251817,41.717841,Ohio,1086
Lourdes University,Master,-83.706649,41.708694,Ohio,2187
Malone University,Master,-81.383525,40.826516,Ohio,2074
Marietta College,Master,-81.450038,39.417638,Ohio,1542
Miami University-Oxford,Doctor,-84.731821,39.509642,Ohio,17901
University of Mount Union,Master,-81.108624,40.905093,Ohio,2187
Mount Vernon Nazarene University,Master,-82.474667,40.373859,Ohio,2229
College of Mount St Joseph,Doctor,-84.640143,39.094519,Ohio,2326
Muskingum University,Master,-81.737192,39.996635,Ohio,2154
Notre Dame College,Master,-81.516212,41.506938,Ohio,2269
Oberlin College,Master,-82.221786,41.29474,Ohio,2911
Ohio Dominican University,Master,-82.940499,39.99265,Ohio,2573
Ohio Northern University,Doctor,-83.830729,40.766144,Ohio,3619
Ohio State University-Lima Campus,Master,-84.026195,40.737828,Ohio,1077
Ohio State University-Mansfield Campus,Master,-82.578673,40.797259,Ohio,1204
Ohio State University-Marion Campus,Master,-83.085889,40.579444,Ohio,1259
Ohio State University-Newark Campus,Master,-82.447992,40.068353,Ohio,2315
Ohio State University-Main Campus,Doctor,-83.009001,39.998389,Ohio,57466
Ohio University-Main Campus,Doctor,-82.101064,39.326799,Ohio,28786
Ohio Wesleyan University,Bachelor,-83.067912,40.296912,Ohio,1830
Otterbein University,Doctor,-82.936231,40.12534,Ohio,2919
University of Rio Grande,Master,-82.377359,38.88058,Ohio,2314
Shawnee State University,Master,-82.995357,38.730909,Ohio,4341
Franciscan University of Steubenville,Master,-80.623094,40.376086,Ohio,2733
Tiffin University,Master,-83.18355,41.119193,Ohio,4954
University of Toledo,Doctor,-83.615225,41.65795,Ohio,20743
Union Institute & University,Doctor,-84.500139,39.126856,Ohio,1660
Urbana University,Master,-83.760035,40.099881,Ohio,1748
Ursuline College,Doctor,-81.466716,41.494971,Ohio,1357
Walsh University,Doctor,-81.36911,40.873295,Ohio,2963
Wilberforce University,Master,-83.879358,39.707993,Ohio,479
Wilmington College,Master,-83.817271,39.441097,Ohio,1173
Wittenberg University,Master,-83.814082,39.937463,Ohio,1979
The College of Wooster,Bachelor,-81.934674,40.81046,Ohio,2116
Wright State University-Main Campus,Doctor,-84.064881,39.780634,Ohio,16656
Xavier University,Doctor,-84.477648,39.149291,Ohio,6633
Youngstown State University,Doctor,-80.646515,41.105583,Ohio,13352
Bacone College,Bachelor,-95.335337,35.77707,Oklahoma,965
Oklahoma Wesleyan University,Master,-95.954124,36.717752,Oklahoma,1355
Southern Nazarene University,Master,-97.629504,35.513295,Oklahoma,2249
Cameron University,Master,-98.434163,34.606487,Oklahoma,5898
University of Central Oklahoma,Master,-97.470985,35.658239,Oklahoma,17220
East Central University,Master,-96.664196,34.773805,Oklahoma,4587
Langston University,Doctor,-97.260263,35.943953,Oklahoma,2533
Northeastern State University,Doctor,-94.968528,35.920499,Oklahoma,8548
Northwestern Oklahoma State University,Master,-98.667596,36.796313,Oklahoma,2307
Oklahoma Christian University,Master,-97.468312,35.609042,Oklahoma,2421
Oklahoma Panhandle State University,Bachelor,-101.638488,36.594518,Oklahoma,1375
Oklahoma State University-Main Campus,Doctor,-97.069743,36.123085,Oklahoma,26073
Oklahoma Baptist University,Master,-96.934334,35.359949,Oklahoma,2097
Oklahoma City University,Doctor,-97.541242,35.495271,Oklahoma,3179
University of Oklahoma-Norman Campus,Doctor,-97.445692,35.208152,Oklahoma,27292
Oral Roberts University,Doctor,-95.954215,36.050705,Oklahoma,3414
Rogers State University,Bachelor,-95.635739,36.319609,Oklahoma,4473
Saint Gregory's University,Master,-96.954186,35.367401,Oklahoma,684
University of Science and Arts of Oklahoma,Bachelor,-97.95641,35.031392,Oklahoma,918
Southeastern Oklahoma State University,Master,-96.376381,34.00361,Oklahoma,3826
Southwestern Christian University,Master,-97.639411,35.513596,Oklahoma,847
Southwestern Oklahoma State University,Doctor,-98.707964,35.534609,Oklahoma,4942
University of Tulsa,Doctor,-95.945175,36.151887,Oklahoma,4597
Concordia University-Portland,Doctor,-122.637944,45.568242,Oregon,5428
Eastern Oregon University,Master,-118.09384,45.320392,Oregon,4157
George Fox University,Doctor,-122.968394,45.30399,Oregon,3712
Lewis & Clark College,Doctor,-122.672478,45.450547,Oregon,3521
Linfield College-McMinnville Campus,Bachelor,-123.200464,45.201333,Oregon,1671
Marylhurst University,Master,-122.647755,45.398174,Oregon,1408
Northwest Christian University,Master,-123.079754,44.047483,Oregon,660
Oregon Institute of Technology,Master,-121.785177,42.257152,Oregon,4407
Oregon State University,Doctor,-123.274721,44.56274,Oregon,27902
University of Oregon,Doctor,-123.07398,44.044515,Oregon,24473
Pacific University,Doctor,-123.108777,45.521394,Oregon,3583
Portland State University,Doctor,-122.683553,45.511229,Oregon,28260
University of Portland,Doctor,-122.726859,45.571807,Oregon,4036
Reed College,Master,-122.63064,45.480376,Oregon,1411
Southern Oregon University,Master,-122.694034,42.186467,Oregon,5992
Warner Pacific College,Master,-122.562241,45.50349,Oregon,506
Corban University,Doctor,-122.958413,44.88408,Oregon,1143
Willamette University,Doctor,-123.030727,44.935743,Oregon,2855
Western Oregon University,Master,-123.238785,44.851866,Oregon,6177
Bryn Athyn College of the New Church,Master,-75.06093,40.131358,Pennsylvania,278
Albright College,Master,-75.910152,40.360248,Pennsylvania,2384
Allegheny College,Bachelor,-80.146922,41.648068,Pennsylvania,2161
DeSales University,Doctor,-75.376549,40.540137,Pennsylvania,3266
Alvernia University,Doctor,-75.938163,40.3102,Pennsylvania,2871
Arcadia University,Doctor,-75.165205,40.091941,Pennsylvania,3905
Bloomsburg University of Pennsylvania,Doctor,-76.446383,41.007989,Pennsylvania,10127
Bryn Mawr College,Doctor,-75.314988,40.028541,Pennsylvania,1738
Bucknell University,Master,-76.886275,40.954489,Pennsylvania,3608
Cabrini College,Master,-75.37215,40.054565,Pennsylvania,2448
California University of Pennsylvania,Master,-79.884477,40.066473,Pennsylvania,8243
Carlow University,Doctor,-79.963927,40.439851,Pennsylvania,3012
Carnegie Mellon University,Doctor,-79.942914,40.444616,Pennsylvania,12367
Cedar Crest College,Master,-75.519799,40.586695,Pennsylvania,1486
Chatham University,Doctor,-79.926083,40.448432,Pennsylvania,2170
Chestnut Hill College,Doctor,-75.228847,40.087048,Pennsylvania,2189
Cheyney University of Pennsylvania,Master,-75.529378,39.932293,Pennsylvania,1212
Clarion University of Pennsylvania,Master,-79.374775,41.209676,Pennsylvania,6080
Delaware Valley College,Master,-75.158202,40.29757,Pennsylvania,2023
Dickinson College,Bachelor,-77.197854,40.202796,Pennsylvania,2396
Drexel University,Doctor,-75.188745,39.954855,Pennsylvania,26132
Duquesne University,Doctor,-79.993046,40.437496,Pennsylvania,9904
East Stroudsburg University of Pennsylvania,Master,-75.172614,40.99622,Pennsylvania,6778
Eastern University,Doctor,-75.370268,40.052306,Pennsylvania,4004
Edinboro University of Pennsylvania,Master,-80.126363,41.869978,Pennsylvania,7098
Elizabethtown College,Master,-76.594175,40.150372,Pennsylvania,1892
Franklin and Marshall College,Bachelor,-76.319037,40.048045,Pennsylvania,2297
Gannon University,Doctor,-80.086258,42.126111,Pennsylvania,4211
Geneva College,Master,-80.352545,40.773474,Pennsylvania,1852
Gettysburg College,Bachelor,-77.234982,39.836091,Pennsylvania,2524
Gratz College,Doctor,-75.133025,40.065782,Pennsylvania,673
Gwynedd Mercy University,Master,-75.238052,40.197566,Pennsylvania,2371
Haverford College,Bachelor,-75.302562,40.013368,Pennsylvania,1187
Holy Family University,Doctor,-74.990365,40.060414,Pennsylvania,2956
Immaculata University,Doctor,-75.57063,40.027963,Pennsylvania,3675
Indiana University of Pennsylvania-Main Campus,Doctor,-79.159869,40.615589,Pennsylvania,14925
Juniata College,Master,-78.015204,40.499511,Pennsylvania,1635
Keystone College,Bachelor,-75.777456,41.558969,Pennsylvania,1595
King's College,Master,-75.878603,41.248118,Pennsylvania,2391
Kutztown University of Pennsylvania,Master,-75.785426,40.513705,Pennsylvania,9513
La Roche College,Master,-80.011977,40.569777,Pennsylvania,1481
La Salle University,Doctor,-75.152996,40.038503,Pennsylvania,6436
Lafayette College,Bachelor,-75.209058,40.700512,Pennsylvania,2486
Lebanon Valley College,Doctor,-76.513753,40.331733,Pennsylvania,2022
Lehigh University,Doctor,-75.378887,40.607158,Pennsylvania,7096
Lincoln University of Pennsylvania,Master,-75.928273,39.807725,Pennsylvania,1963
Lock Haven University,Master,-77.463565,41.142097,Pennsylvania,5260
Lycoming College,Bachelor,-77.0003,41.246127,Pennsylvania,1307
Mansfield University of Pennsylvania,Master,-77.07299,41.79971,Pennsylvania,2970
Marywood University,Doctor,-75.633996,41.434978,Pennsylvania,3175
Mercyhurst University,Doctor,-80.055568,42.103991,Pennsylvania,3011
Messiah College,Master,-76.988492,40.15867,Pennsylvania,3084
Millersville University of Pennsylvania,Master,-76.355091,39.99813,Pennsylvania,8279
Misericordia University,Doctor,-75.971016,41.344765,Pennsylvania,3026
Moravian College,Master,-75.380979,40.630888,Pennsylvania,1837
Mount Aloysius College,Master,-78.601358,40.459948,Pennsylvania,1835
Muhlenberg College,Bachelor,-75.508954,40.597362,Pennsylvania,2448
Neumann University,Doctor,-75.437928,39.874944,Pennsylvania,2956
Pennsylvania State University-Penn State Erie-Behrend College,Master,-79.986362,42.120271,Pennsylvania,4057
Pennsylvania State University-Penn State Great Valley,Master,-75.521311,40.052845,Pennsylvania,473
Pennsylvania State University-Penn State New Kensington,Master,-79.703269,40.55382,Pennsylvania,680
Pennsylvania State University-Penn State Shenango,Bachelor,-80.508204,41.234852,Pennsylvania,568
Pennsylvania State University-Penn State Wilkes-Barre,Bachelor,-76.017242,41.306529,Pennsylvania,613
Pennsylvania State University-Penn State Worthington Scranton,Bachelor,-75.620583,41.440258,Pennsylvania,1178
Pennsylvania State University-Penn State Lehigh Valley,Bachelor,-75.401798,40.557651,Pennsylvania,925
Pennsylvania State University-Penn State Altoona,Bachelor,-78.409112,40.540682,Pennsylvania,3861
Pennsylvania State University-Penn State Beaver,Bachelor,-80.296235,40.678254,Pennsylvania,703
Pennsylvania State University-Penn State Berks,Bachelor,-75.972141,40.357987,Pennsylvania,2732
Pennsylvania State University-Penn State Harrisburg,Doctor,-76.741961,40.205234,Pennsylvania,4441
Pennsylvania State University-Penn State Brandywine,Bachelor,-75.447825,39.928355,Pennsylvania,1492
Pennsylvania State University-Penn State Dubois,Bachelor,-78.751784,41.126941,Pennsylvania,704
Pennsylvania State University-Penn State Fayette- Eberly,Bachelor,-79.654944,39.948498,Pennsylvania,846
Pennsylvania State University-Penn State Hazleton,Bachelor,-76.031567,40.984157,Pennsylvania,951
Pennsylvania State University-Main Campus,Doctor,-77.861644,40.800732,Pennsylvania,46615
Pennsylvania State University-Penn State Greater Allegheny,Master,-79.827262,40.344474,Pennsylvania,623
Pennsylvania State University-Penn State Mont Alto,Bachelor,-77.544068,39.841914,Pennsylvania,1023
Pennsylvania State University-Penn State Abington,Bachelor,-75.110661,40.116995,Pennsylvania,3694
Pennsylvania State University-Penn State Schuylkill,Bachelor,-76.166371,40.642583,Pennsylvania,837
Pennsylvania State University-Penn State York,Master,-76.702835,39.952327,Pennsylvania,1177
Peirce College,Master,-75.166332,39.945483,Pennsylvania,1796
University of Pennsylvania,Doctor,-75.193618,39.951002,Pennsylvania,24630
Philadelphia University,Doctor,-75.194249,40.022281,Pennsylvania,3523
Cairn University-Langhorne,Master,-74.909509,40.165809,Pennsylvania,1093
University of Pittsburgh-Bradford,Bachelor,-78.673039,41.944173,Pennsylvania,1481
University of Pittsburgh-Greensburg,Bachelor,-79.535757,40.292824,Pennsylvania,1677
University of Pittsburgh-Johnstown,Bachelor,-78.832611,40.268583,Pennsylvania,2840
University of Pittsburgh-Pittsburgh Campus,Doctor,-79.954692,40.444502,Pennsylvania,28649
Point Park University,Master,-80.001462,40.438526,Pennsylvania,3841
Robert Morris University,Doctor,-80.211785,40.521088,Pennsylvania,5481
Rosemont College,Master,-75.329898,40.034771,Pennsylvania,957
Saint Francis University,Doctor,-78.638469,40.502782,Pennsylvania,2344
Saint Joseph's University,Doctor,-75.238343,39.994442,Pennsylvania,8954
Saint Vincent College,Doctor,-79.403702,40.29252,Pennsylvania,1813
University of Scranton,Doctor,-75.658031,41.40715,Pennsylvania,5633
Seton Hill University,Master,-79.556228,40.308623,Pennsylvania,2357
Shippensburg University of Pennsylvania,Master,-77.5229,40.057405,Pennsylvania,7548
Slippery Rock University of Pennsylvania,Doctor,-80.051814,41.060814,Pennsylvania,8347
Susquehanna University,Bachelor,-76.87521,40.79774,Pennsylvania,2187
Swarthmore College,Bachelor,-75.356066,39.904081,Pennsylvania,1534
Temple University,Doctor,-75.158267,39.980943,Pennsylvania,37270
Thiel College,Bachelor,-80.382134,41.41308,Pennsylvania,1100
Ursinus College,Bachelor,-75.455654,40.19405,Pennsylvania,1596
Valley Forge Christian College,Master,-75.54864,40.118341,Pennsylvania,1004
Villanova University,Doctor,-75.345457,40.039388,Pennsylvania,10696
Washington & Jefferson College,Bachelor,-80.240388,40.171898,Pennsylvania,1328
Waynesburg University,Doctor,-80.18727,39.899419,Pennsylvania,2190
West Chester University of Pennsylvania,Master,-75.594631,39.949084,Pennsylvania,15845
Westminster College,Master,-80.331376,41.118456,Pennsylvania,1366
Widener University-Main Campus,Doctor,-75.356718,39.86158,Pennsylvania,5025
Wilkes University,Doctor,-75.88833,41.243204,Pennsylvania,4665
Wilson College,Master,-77.658075,39.947461,Pennsylvania,662
York College Pennsylvania,Doctor,-76.727266,39.946709,Pennsylvania,5250
Brown University,Doctor,-71.404467,41.827605,Rhode Island,8943
Bryant University,Master,-71.539147,41.920149,Rhode Island,3454
Johnson & Wales University-Providence,Doctor,-71.413322,41.820558,Rhode Island,10369
New England Institute of Technology,Master,-71.502892,41.661783,Rhode Island,2933
Providence College,Master,-71.43792,41.844064,Rhode Island,4665
Rhode Island College,Doctor,-71.466915,41.84266,Rhode Island,8700
University of Rhode Island,Doctor,-71.527356,41.484691,Rhode Island,16387
Roger Williams University,Master,-71.261836,41.647314,Rhode Island,4732
Salve Regina University,Doctor,-71.301125,41.471445,Rhode Island,2603
Allen University,Bachelor,-81.020045,34.010348,South Carolina,651
Anderson University,Doctor,-82.640205,34.515506,South Carolina,2966
Charleston Southern University,Master,-80.069288,32.981986,South Carolina,3269
Benedict College,Bachelor,-81.021412,34.011285,South Carolina,2512
Southern Wesleyan University,Master,-82.761586,34.728068,South Carolina,1701
College of Charleston,Master,-79.937251,32.783142,South Carolina,11619
Citadel Military College of South Carolina,Master,-79.961399,32.796975,South Carolina,3598
Claflin University,Master,-80.854368,33.497367,South Carolina,1884
Clemson University,Doctor,-82.834463,34.677329,South Carolina,21303
Coker College,Master,-80.067713,34.37709,South Carolina,1172
Columbia International University,Doctor,-81.069502,34.081233,South Carolina,1154
Columbia College,Master,-81.001369,34.062923,South Carolina,1169
Converse College,Master,-81.918829,34.956232,South Carolina,1333
Erskine College,Doctor,-82.390797,34.330674,South Carolina,815
Francis Marion University,Master,-79.655515,34.192277,South Carolina,4058
Furman University,Master,-82.441473,34.920785,South Carolina,2953
Lander University,Master,-82.166351,34.201143,South Carolina,2877
Limestone College,Master,-81.648033,35.052919,South Carolina,3307
Morris College,Bachelor,-80.346346,33.938707,South Carolina,824
Newberry College,Bachelor,-81.601966,34.286201,South Carolina,1039
North Greenville University,Doctor,-82.37026,35.069758,South Carolina,2466
Presbyterian College,Doctor,-81.874408,34.465697,South Carolina,1433
University of South Carolina-Aiken,Master,-81.767901,33.572917,South Carolina,3299
University of South Carolina-Beaufort,Bachelor,-80.973595,32.303308,South Carolina,1724
University of South Carolina-Columbia,Doctor,-81.026971,33.998973,South Carolina,31964
Coastal Carolina University,Master,-79.0126,33.794733,South Carolina,9478
South Carolina State University,Doctor,-80.851185,33.497439,South Carolina,3463
University of South Carolina-Upstate,Master,-81.970583,34.996403,South Carolina,5445
Voorhees College,Bachelor,-81.130104,33.307455,South Carolina,536
Winthrop University,Master,-81.028667,34.938506,South Carolina,6130
Wofford College,Bachelor,-81.934572,34.957914,South Carolina,1615
Augustana College,Master,-96.738507,43.525939,South Dakota,1765
Black Hills State University,Master,-103.870009,44.495536,South Dakota,4464
Dakota State University,Doctor,-97.109609,44.0127,South Dakota,3129
Dakota Wesleyan University,Master,-98.030566,43.695995,South Dakota,879
Mount Marty College,Master,-97.409904,42.874475,South Dakota,1225
Northern State University,Master,-98.4837,45.452555,South Dakota,3275
Presentation College,Bachelor,-98.49077,45.482833,South Dakota,791
South Dakota State University,Doctor,-96.783415,44.31942,South Dakota,12525
University of Sioux Falls,Master,-96.738229,43.531574,South Dakota,1408
University of South Dakota,Doctor,-96.924664,42.784558,South Dakota,10235
Aquinas College,Master,-86.844214,36.132187,Tennessee,574
Austin Peay State University,Master,-87.354081,36.533319,Tennessee,10399
Belmont University,Doctor,-86.794715,36.133866,Tennessee,6915
Bethel University,Master,-88.516162,36.139271,Tennessee,6634
Bryan College-Dayton,Master,-85.016596,35.495721,Tennessee,1704
Carson-Newman University,Doctor,-83.492183,36.122224,Tennessee,2045
Christian Brothers University,Master,-89.983241,35.127437,Tennessee,1577
Cumberland University,Master,-86.29966,36.204243,Tennessee,1501
Lipscomb University,Doctor,-86.799304,36.10469,Tennessee,4580
East Tennessee State University,Doctor,-82.366954,36.301643,Tennessee,14691
Fisk University,Master,-86.805671,36.16912,Tennessee,646
Welch College,Bachelor,-86.826158,36.134633,Tennessee,338
Freed-Hardeman University,Master,-88.639418,35.440073,Tennessee,1811
King University,Master,-82.156532,36.585899,Tennessee,2575
Lane College,Bachelor,-88.806832,35.628197,Tennessee,1554
Le Moyne-Owen College,Bachelor,-90.034101,35.118641,Tennessee,1023
Lee University,Master,-84.870018,35.166166,Tennessee,4922
Lincoln Memorial University,Doctor,-83.658818,36.581284,Tennessee,3952
Martin Methodist College,Bachelor,-87.035085,35.200662,Tennessee,1144
Maryville College,Bachelor,-83.963853,35.751969,Tennessee,1168
University of Memphis,Doctor,-89.982038,35.115934,Tennessee,21480
Middle Tennessee State University,Doctor,-86.362094,35.849139,Tennessee,23881
Milligan College,Master,-82.29499,36.30036,Tennessee,1198
Rhodes College,Master,-89.989187,35.154424,Tennessee,2040
Sewanee-The University of the South,Doctor,-85.917772,35.20443,Tennessee,1701
Southern Adventist University,Doctor,-85.050878,35.049136,Tennessee,3255
Tennessee Wesleyan College,Master,-84.592647,35.444939,Tennessee,1084
The University of Tennessee-Chattanooga,Doctor,-85.299812,35.048247,Tennessee,11674
The University of Tennessee-Knoxville,Doctor,-83.929696,35.955093,Tennessee,30030
The University of Tennessee-Martin,Master,-88.864211,36.340338,Tennessee,7423
Tennessee State University,Doctor,-86.82937,36.16899,Tennessee,8883
Tennessee Technological University,Doctor,-85.503957,36.174659,Tennessee,11118
Trevecca Nazarene University,Doctor,-86.753566,36.142115,Tennessee,2406
Tusculum College,Master,-82.761716,36.172558,Tennessee,2055
Union University,Doctor,-88.858524,35.676896,Tennessee,3993
Vanderbilt University,Doctor,-86.804875,36.14443,Tennessee,12757
Abilene Christian University,Doctor,-99.70954,32.46915,Texas,4461
Angelo State University,Doctor,-100.466495,31.44145,Texas,6536
Austin College,Master,-96.598772,33.646307,Texas,1223
Baylor University,Doctor,-97.119359,31.545956,Texas,15616
Concordia University-Texas,Master,-97.836247,30.420952,Texas,2565
Texas A & M University-Corpus Christi,Doctor,-97.331933,27.718601,Texas,10913
Dallas Baptist University,Doctor,-96.947006,32.710017,Texas,5422
University of Dallas,Doctor,-96.921573,32.846202,Texas,2598
East Texas Baptist University,Master,-94.374337,32.554545,Texas,1247
Texas A & M University-Texarkana,Master,-94.10398,33.49561,Texas,1842
Texas A & M University-Commerce,Doctor,-95.906913,33.243814,Texas,11591
Hardin-Simmons University,Doctor,-99.733815,32.476786,Texas,2220
Houston Baptist University,Master,-95.515978,29.694414,Texas,2910
University of Houston-Clear Lake,Doctor,-95.098129,29.582523,Texas,8164
University of Houston-Downtown,Master,-95.35953,29.763831,Texas,13757
University of Houston-Victoria,Master,-96.978193,28.816438,Texas,4491
University of Houston,Doctor,-95.344851,29.719988,Texas,39540
Howard Payne University,Master,-98.984956,31.716345,Texas,1170
Huston-Tillotson University,Bachelor,-97.721698,30.264672,Texas,973
University of the Incarnate Word,Doctor,-98.467709,29.468052,Texas,8685
Jarvis Christian College,Bachelor,-95.17773,32.588249,Texas,609
Lamar University,Doctor,-94.073389,30.044274,Texas,14035
Texas A & M International University,Doctor,-99.435225,27.573504,Texas,7431
LeTourneau University,Master,-94.72726,32.467658,Texas,2729
Lubbock Christian University,Master,-101.934816,33.576273,Texas,2002
University of Mary Hardin-Baylor,Doctor,-97.463479,31.066798,Texas,3492
McMurry University,Master,-99.750277,32.429551,Texas,1216
Midwestern State University,Master,-98.51774,33.877143,Texas,5870
University of North Texas,Doctor,-97.151211,33.210958,Texas,38315
Our Lady of the Lake University,Doctor,-98.54395,29.425611,Texas,2927
The University of Texas-Pan American,Doctor,-98.172112,26.306629,Texas,20053
The University of Texas at Brownsville,Doctor,-97.486644,25.893584,Texas,12285
Paul Quinn College,Bachelor,-96.755864,32.677195,Texas,243
Prairie View A & M University,Doctor,-95.992066,30.094591,Texas,8283
Rice University,Doctor,-95.403625,29.716485,Texas,6628
Saint Edward's University,Master,-97.75763,30.229844,Texas,4861
University of St Thomas,Doctor,-95.394178,29.738113,Texas,3525
Sam Houston State University,Doctor,-95.5519,30.7247,Texas,19210
Schreiner University,Master,-99.131076,30.03108,Texas,1136
St Mary's University,Doctor,-98.564307,29.451793,Texas,3868
Southern Methodist University,Doctor,-96.784855,32.845254,Texas,10929
Southwestern Assemblies of God University,Master,-96.85315,32.405477,Texas,2012
Southwestern University,Bachelor,-97.664637,30.635194,Texas,1535
Stephen F Austin State University,Doctor,-94.58546,31.58562,Texas,12772
Texas State University,Doctor,-97.936392,29.889202,Texas,35546
Southwestern Adventist University,Master,-97.328511,32.397136,Texas,808
Southwestern Christian College,Bachelor,-96.286747,32.735778,Texas,172
Sul Ross State University,Master,-103.65007,30.363418,Texas,2842
Tarleton State University,Doctor,-98.22008,32.215665,Texas,13307
Texas A & M University-Kingsville,Doctor,-97.882342,27.524852,Texas,12229
Texas A & M University-Galveston,Doctor,-94.818532,29.315257,Texas,
Texas A & M University-College Station,Doctor,-96.340322,30.613226,Texas,55697
The University of Texas at Arlington,Doctor,-97.115087,32.728437,Texas,33329
The University of Texas at Austin,Doctor,-97.737279,30.284733,Texas,52059
The University of Texas at Dallas,Doctor,-96.748371,32.989432,Texas,21193
The University of Texas at El Paso,Doctor,-106.50356,31.771697,Texas,23003
The University of Texas at Tyler,Doctor,-95.249096,32.314724,Texas,7476
Texas Christian University,Doctor,-97.361537,32.709568,Texas,9925
Texas College,Bachelor,-95.312259,32.374185,Texas,971
Texas Lutheran University,Master,-97.984601,29.573274,Texas,1341
The University of Texas of the Permian Basin,Master,-102.329634,31.889509,Texas,5131
The University of Texas at San Antonio,Doctor,-98.621386,29.582418,Texas,28623
Texas Southern University,Doctor,-95.361961,29.722468,Texas,8703
Texas Tech University,Doctor,-101.876917,33.580309,Texas,33111
Texas Wesleyan University,Doctor,-97.279631,32.733314,Texas,2397
Texas Woman's University,Doctor,-97.129088,33.227002,Texas,15058
Trinity University,Master,-98.482577,29.46286,Texas,2358
Wayland Baptist University,Master,-101.729564,34.186673,Texas,6222
West Texas A & M University,Doctor,-101.9158,34.981996,Texas,8377
Wiley College,Bachelor,-94.376821,32.537646,Texas,1392
Brigham Young University-Provo,Doctor,-111.649281,40.250851,Utah,31123
Brigham Young University-Hawaii,Bachelor,-157.925358,21.641172,Hawaii,2882
Dixie State University,Bachelor,-113.565894,37.103875,Utah,8350
Southern Utah University,Master,-113.070146,37.674617,Utah,7745
Stevens-Henager College-Ogden,Bachelor,-112.011617,41.232847,Utah,320
Stevens-Henager College of Business-Provo,Bachelor,-111.713264,40.269691,Utah,351
Utah State University,Doctor,-111.81391,41.740748,Utah,27812
Utah Valley University,Master,-111.717058,40.278512,Utah,30564
University of Utah,Doctor,-111.846044,40.762484,Utah,32077
Weber State University,Master,-111.94484,41.19258,Utah,25155
Westminster College,Master,-111.855553,40.731495,Utah,3108
Bennington College,Master,-73.237498,42.92004,Vermont,738
Burlington College,Master,-73.228181,44.49117,Vermont,243
Castleton State College,Master,-73.181486,43.607982,Vermont,2175
Champlain College,Master,-73.204354,44.47295,Vermont,3305
Goddard College,Master,-72.437252,44.27912,Vermont,592
Green Mountain College,Master,-73.241107,43.517134,Vermont,840
Johnson State College,Master,-72.671154,44.641736,Vermont,1692
Lyndon State College,Master,-72.024563,44.53433,Vermont,1519
Marlboro College,Master,-72.736552,42.839603,Vermont,260
Middlebury College,Doctor,-73.176068,44.009117,Vermont,2495
Norwich University,Master,-72.660129,44.139402,Vermont,3417
Saint Michael's College,Master,-73.163136,44.494212,Vermont,2378
SIT Graduate Institute,Master,-72.56738,42.891035,Vermont,443
College of St Joseph,Master,-73.007033,43.599777,Vermont,271
Southern Vermont College,Bachelor,-73.21866,42.867031,Vermont,480
Sterling College,Bachelor,-72.382372,44.65225,Vermont,116
Vermont Technical College,Bachelor,-72.605179,43.939321,Vermont,1543
University of Vermont,Doctor,-73.198128,44.479262,Vermont,12723
Averett University,Master,-79.413214,36.577273,Virginia,906
Bluefield College,Master,-81.244879,37.245681,Virginia,842
Bridgewater College,Bachelor,-78.969011,38.378391,Virginia,1848
College of William and Mary,Doctor,-76.709395,37.27195,Virginia,8376
Regent University,Doctor,-76.192844,36.800929,Virginia,5693
Christopher Newport University,Master,-76.486978,37.061502,Virginia,5232
Emory & Henry College,Master,-81.831737,36.772543,Virginia,959
Eastern Mennonite University,Master,-78.876077,38.478611,Virginia,1640
Ferrum College,Bachelor,-80.020864,36.926648,Virginia,1512
George Mason University,Doctor,-77.30794,38.83088,Virginia,33917
Hampden-Sydney College,Bachelor,-78.461371,37.242482,Virginia,1070
Hampton University,Doctor,-76.337647,37.022084,Virginia,4622
Hollins University,Master,-79.942196,37.354629,Virginia,750
James Madison University,Doctor,-78.871663,38.435332,Virginia,20181
Liberty University,Doctor,-79.179688,37.350345,Virginia,77338
Longwood University,Master,-78.395789,37.301073,Virginia,4960
Lynchburg College,Doctor,-79.184153,37.397678,Virginia,2713
Mary Baldwin College,Master,-79.068325,38.154799,Virginia,1711
University of Mary Washington,Master,-77.474392,38.302206,Virginia,4831
Marymount University,Doctor,-77.128799,38.905552,Virginia,3486
Norfolk State University,Doctor,-76.26393,36.848262,Virginia,6728
Old Dominion University,Doctor,-76.309653,36.884919,Virginia,24828
Radford University,Doctor,-80.549731,37.136914,Virginia,9928
Randolph-Macon College,Bachelor,-77.472253,37.749654,Virginia,1315
Randolph College,Master,-79.17079,37.437429,Virginia,682
University of Richmond,Doctor,-77.538702,37.577625,Virginia,4140
Roanoke College,Bachelor,-80.056433,37.29686,Virginia,2029
Shenandoah University,Doctor,-78.158376,39.166058,Virginia,4003
Southern Virginia University,Bachelor,-79.350296,37.740669,Virginia,662
Sweet Briar College,Master,-79.079735,37.556317,Virginia,710
The University of Virginia's College at Wise,Bachelor,-82.558728,36.971468,Virginia,2291
Virginia Intermont College,Bachelor,-82.17614,36.605006,Virginia,378
Virginia Polytechnic Institute and State University,Doctor,-80.423267,37.228561,Virginia,31205
Virginia Commonwealth University,Doctor,-77.453597,37.547631,Virginia,30974
University of Virginia-Main Campus,Doctor,-78.502599,38.036546,Virginia,23464
Virginia Military Institute,Bachelor,-79.435737,37.790644,Virginia,1675
Virginia State University,Doctor,-77.419886,37.236453,Virginia,5763
Virginia Union University,Doctor,-77.450954,37.561864,Virginia,1749
Virginia Wesleyan College,Bachelor,-76.18606,36.868417,Virginia,1459
Washington and Lee University,Doctor,-79.445724,37.787832,Virginia,2277
Central Washington University,Master,-120.537716,47.004957,Washington,11287
City University of Seattle,Doctor,-122.344331,47.61734,Washington,2368
Eastern Washington University,Doctor,-117.589371,47.491293,Washington,12791
The Evergreen State College,Master,-122.977492,47.07382,Washington,4398
Gonzaga University,Doctor,-117.403062,47.668144,Washington,7605
Heritage University,Master,-120.395287,46.374571,Washington,1128
Trinity Lutheran College,Bachelor,-122.207663,47.980328,Washington,194
Northwest University,Doctor,-122.191505,47.657743,Washington,1733
Pacific Lutheran University,Master,-122.445372,47.145494,Washington,3462
University of Puget Sound,Doctor,-122.479714,47.263651,Washington,2812
Saint Martin's University,Master,-122.815732,47.04328,Washington,1787
Seattle Pacific University,Doctor,-122.362923,47.649338,Washington,4270
Seattle University,Doctor,-122.3197,47.610138,Washington,7422
Walla Walla University,Master,-118.389771,46.047,Washington,1917
Washington State University,Doctor,-117.158168,46.730448,Washington,27642
University of Washington-Seattle Campus,Doctor,-122.313115,47.656213,Washington,43762
Western Washington University,Master,-122.484873,48.737236,Washington,14950
Whitman College,Bachelor,-118.33016,46.07135,Washington,1541
Whitworth University,Master,-117.418078,47.753699,Washington,2569
Alderson Broaddus University,Master,-80.047728,39.158067,West Virginia,1117
Bethany College,Master,-80.56916,40.204594,West Virginia,726
Bluefield State College,Bachelor,-81.235428,37.26688,West Virginia,1747
University of Charleston,Doctor,-81.618667,38.332577,West Virginia,1935
Concord University,Master,-81.005694,37.423854,West Virginia,2767
Davis & Elkins College,Bachelor,-79.846391,38.928693,West Virginia,874
Fairmont State University,Master,-80.161844,39.485925,West Virginia,4232
Glenville State College,Bachelor,-80.833597,38.935341,West Virginia,1850
Marshall University,Doctor,-82.43065,38.42261,West Virginia,13407
Ohio Valley University,Master,-81.5392,39.31236,West Virginia,451
West Virginia University at Parkersburg,Bachelor,-81.506192,39.216379,West Virginia,3461
Shepherd University,Master,-77.804844,39.434319,West Virginia,4221
West Virginia State University,Master,-81.76802,38.379002,West Virginia,2677
West Liberty University,Master,-80.604054,40.162473,West Virginia,2776
West Virginia University Institute of Technology,Bachelor,-81.325199,38.179427,West Virginia,1222
West Virginia Wesleyan College,Master,-80.217094,38.990476,West Virginia,1469
West Virginia University,Doctor,-79.953926,39.63468,West Virginia,29466
Wheeling Jesuit University,Doctor,-80.690804,40.070873,West Virginia,1619
Alverno College,Master,-87.965498,42.983518,Wisconsin,2536
Beloit College,Bachelor,-89.03147,42.50363,Wisconsin,1306
Cardinal Stritch University,Doctor,-87.909045,43.139752,Wisconsin,4407
Carroll University,Doctor,-88.227962,43.004647,Wisconsin,3534
Carthage College,Master,-87.820706,42.622893,Wisconsin,2988
Concordia University-Wisconsin,Doctor,-87.916628,43.254217,Wisconsin,7943
Edgewood College,Doctor,-89.422122,43.058727,Wisconsin,2894
Lakeland College,Master,-87.884956,43.841863,Wisconsin,3806
Lawrence University,Bachelor,-88.397822,44.261323,Wisconsin,1553
Maranatha Baptist University,Master,-88.735055,43.195709,Wisconsin,1035
Marian University,Doctor,-88.420638,43.777411,Wisconsin,2188
Marquette University,Doctor,-87.928121,43.038766,Wisconsin,11782
Milwaukee School of Engineering,Master,-87.907691,43.045364,Wisconsin,2658
Mount Mary University,Doctor,-88.030594,43.072303,Wisconsin,1481
Northland International University,Doctor,-88.095933,45.58114,Wisconsin,327
Northland College,Bachelor,-90.874991,46.578983,Wisconsin,552
Ripon College,Bachelor,-88.8426,43.842383,Wisconsin,904
Saint Norbert College,Master,-88.067301,44.444651,Wisconsin,2222
